{
  "type": "FeatureCollection",
  "features": [
    {
      "type": "Feature",
      "geometry": {
        "type": "Point",
        "coordinates": [
          143.8989329,
          43.7967939
        ]
      },
      "properties": {
        "name": "第一工業株式会社",
        "category": "建設関係",
        "region": "道北",
        "rank": "ブロンズ",
        "work": "防水工事他建設業",
        "postalCode": "090-0806",
        "address": "北見市南町1丁目8番33号",
        "phoneNumber": "0157-23-4155",
        "url": "http://www.ichiko.co.jp/",
        "benefit": "",
        "comment": "",
        "continuationYears": 8
      }
    },
    {
      "type": "Feature",
      "geometry": {
        "type": "Point",
        "coordinates": [
          141.4078017,
          43.03415
        ]
      },
      "properties": {
        "name": "札幌日信電子株式会社",
        "category": "建設関係",
        "region": "道央",
        "rank": "ブロンズ",
        "work": "総合設備業",
        "postalCode": "062-0054",
        "address": "札幌市豊平区月寒東4条8丁目6番5号",
        "phoneNumber": "011-855-6781",
        "url": "http://www.sapporo-nisshin.co.jp",
        "benefit": "",
        "comment": "",
        "continuationYears": 8
      }
    },
    {
      "type": "Feature",
      "geometry": {
        "type": "Point",
        "coordinates": [
          141.4156815,
          43.1083016
        ]
      },
      "properties": {
        "name": "グローバルシステム有限会社",
        "category": "建設関係",
        "region": "道央",
        "rank": "ブロンズ",
        "work": "電気通信工事業",
        "postalCode": "007-0812",
        "address": "札幌市東区東苗穂12条1丁目8-13",
        "phoneNumber": "011-792-4434",
        "url": "http://www.global-sys.info",
        "benefit": "",
        "comment": "サポーターと言って頂ければ、何か割引します。",
        "continuationYears": 7
      }
    },
    {
      "type": "Feature",
      "geometry": {
        "type": "Point",
        "coordinates": [
          141.3601832,
          43.0700553
        ]
      },
      "properties": {
        "name": "株式会社　日星電機",
        "category": "建設関係",
        "region": "道央",
        "rank": "ブロンズ",
        "work": "建設業・産業機器販売",
        "postalCode": "060-0906",
        "address": "札幌市東区北6条東4丁目8番地の16",
        "phoneNumber": "011-731-7231",
        "url": "http://www.nissei-d.co.jp/",
        "benefit": "",
        "comment": "信頼と実績を礎に、豊かな自然環境とイノベーションによる快適な生活環境を求めて。",
        "continuationYears": 7
      }
    },
    {
      "type": "Feature",
      "geometry": {
        "type": "Point",
        "coordinates": [
          141.2673411,
          43.1048144
        ]
      },
      "properties": {
        "name": "SOYO株式会社",
        "category": "建設関係",
        "region": "道央",
        "rank": "ブロンズ",
        "work": "建設業",
        "postalCode": "006-0001",
        "address": "札幌市手稲区西宮の沢1条2丁目3-18",
        "phoneNumber": "011-669-1515",
        "url": "",
        "benefit": "",
        "comment": "",
        "continuationYears": 6
      }
    },
    {
      "type": "Feature",
      "geometry": {
        "type": "Point",
        "coordinates": [
          143.5133833,
          42.79444650000001
        ]
      },
      "properties": {
        "name": "豊頃町立豊頃医院",
        "category": "病院・医療",
        "region": "道東",
        "rank": "ブロンズ",
        "work": "医院",
        "postalCode": "089-5313",
        "address": "中川郡豊頃町茂岩栄町107番地17",
        "phoneNumber": "015-574-2020",
        "url": "",
        "benefit": "",
        "comment": "",
        "continuationYears": 12
      }
    },
    {
      "type": "Feature",
      "geometry": {
        "type": "Point",
        "coordinates": [
          141.3473668,
          43.068942
        ]
      },
      "properties": {
        "name": "JERSEY　CAFE（ジャージーカフェ）",
        "category": "飲料・食品",
        "region": "道央",
        "rank": "ブロンズ",
        "work": "スポーツバー",
        "postalCode": "060-0007",
        "address": "札幌市北区北7条西5丁目6-2",
        "phoneNumber": "011-738-8550",
        "url": "https://www.hotpepper.jp/strJ000621963/appearance/",
        "benefit": "ホームゲーム観戦帰りのお客様お会計より10％OFF",
        "comment": "サッポロクラシックをはじめ世界のビールが50種類以上飲めるスポーツバー",
        "continuationYears": 3
      }
    },
    {
      "type": "Feature",
      "geometry": {
        "type": "Point",
        "coordinates": [
          141.334129,
          43.0995253
        ]
      },
      "properties": {
        "name": "株式会社　タイヤ工房",
        "category": "卸売・小売",
        "region": "道央",
        "rank": "ブロンズ",
        "work": "タイヤ・ホイール販売",
        "postalCode": "001-0032",
        "address": "札幌市北区北32条西9丁目5-18",
        "phoneNumber": "011-738-0610",
        "url": "http://www.tire-kobo.com",
        "benefit": "",
        "comment": "タイヤ・ホイールのことなら『タイヤ工房』へ！あなたの車の足元に安心をお届け致します。",
        "continuationYears": 5
      }
    },
    {
      "type": "Feature",
      "geometry": {
        "type": "Point",
        "coordinates": [
          141.4328036,
          43.0277957
        ]
      },
      "properties": {
        "name": "株式会社　クリアリンク",
        "category": "建設関係",
        "region": "道央",
        "rank": "プラチナ",
        "work": "水道修理業",
        "postalCode": "003-0021",
        "address": "札幌市白石区栄通18丁目5-60",
        "phoneNumber": "0120-177-026",
        "url": "http://clearlink.co.jp",
        "benefit": "水道修理のご依頼で作業工賃 3000円OFF",
        "comment": "水漏れ、詰まり、水道修理なら24時間 年中無休のクリアリンクへお電話ください",
        "continuationYears": 5
      }
    },
    {
      "type": "Feature",
      "geometry": {
        "type": "Point",
        "coordinates": [
          141.2775991,
          43.089234
        ]
      },
      "properties": {
        "name": "アパマンショップ宮の沢店",
        "category": "不動産業",
        "region": "道央",
        "rank": "ブロンズ",
        "work": "不動産業",
        "postalCode": "063-0826",
        "address": "札幌市西区発寒6条9丁目2-15",
        "phoneNumber": "011-667-8900",
        "url": "http://www.apaman-nihonchiken.com",
        "benefit": "札幌市内全てのお部屋を仲介無料で紹介いたします",
        "comment": "おかげさまで創業40年、今年も熱くコンサをサポート",
        "continuationYears": 5
      }
    },
    {
      "type": "Feature",
      "geometry": {
        "type": "Point",
        "coordinates": [
          141.3507553,
          43.0686606
        ]
      },
      "properties": {
        "name": "亀田実業株式会社",
        "category": "不動産業",
        "region": "道央",
        "rank": "シルバー",
        "work": "不動産業",
        "postalCode": "060-0806",
        "address": "札幌市北区北6条西1丁目4-2",
        "phoneNumber": "011-792-5048",
        "url": "",
        "benefit": "",
        "comment": "",
        "continuationYears": 4
      }
    },
    {
      "type": "Feature",
      "geometry": {
        "type": "Point",
        "coordinates": [
          141.3503685,
          43.0652703
        ]
      },
      "properties": {
        "name": "マンパワーグループ株式会社",
        "category": "その他",
        "region": "道央",
        "rank": "シルバー",
        "work": "IT関連サービス",
        "postalCode": "060-0003",
        "address": "札幌市中央区北3条西4丁目１",
        "phoneNumber": "011-209-0450",
        "url": "http://www.manpowergroup.jp/",
        "benefit": "",
        "comment": "",
        "continuationYears": 4
      }
    },
    {
      "type": "Feature",
      "geometry": {
        "type": "Point",
        "coordinates": [
          141.4281317,
          43.0451926
        ]
      },
      "properties": {
        "name": "共通運送株式会社",
        "category": "その他",
        "region": "道央",
        "rank": "ブロンズ",
        "work": "運送業・倉庫業",
        "postalCode": "003-0029",
        "address": "札幌市白石区平和通11丁目北6番19号",
        "phoneNumber": "011-862-8288",
        "url": "http://www.kyotsu.co.jp/",
        "benefit": "",
        "comment": "",
        "continuationYears": 21
      }
    },
    {
      "type": "Feature",
      "geometry": {
        "type": "Point",
        "coordinates": [
          141.4285661,
          43.0381302
        ]
      },
      "properties": {
        "name": "北海道自動車リース株式会社",
        "category": "その他",
        "region": "道央",
        "rank": "ゴールド",
        "work": "車輌リース・レンタカー",
        "postalCode": "003-0026",
        "address": "札幌市白石区本通14丁目南5番15号",
        "phoneNumber": "011-868-8111",
        "url": "",
        "benefit": "",
        "comment": "",
        "continuationYears": 4
      }
    },
    {
      "type": "Feature",
      "geometry": {
        "type": "Point",
        "coordinates": [
          139.7797656,
          35.6739432
        ]
      },
      "properties": {
        "name": "株式会社　ファースト・シンボリー",
        "category": "その他",
        "region": "道外",
        "rank": "シルバー",
        "work": "広告デザイン・HP制作、販売促進、コンサルティング",
        "postalCode": "",
        "address": "104-0032　東京都中央区八丁掘4-12-7　サニービル7F",
        "phoneNumber": "03-3555-9551",
        "url": "http://www.firstsymboly.com",
        "benefit": "",
        "comment": "ホームページ制作料30%OFF",
        "continuationYears": 6
      }
    },
    {
      "type": "Feature",
      "geometry": {
        "type": "Point",
        "coordinates": [
          141.3374695,
          43.035402
        ]
      },
      "properties": {
        "name": "有田税理士事務所",
        "category": "法律関係",
        "region": "道央",
        "rank": "ブロンズ",
        "work": "税理士",
        "postalCode": "064-0918",
        "address": "札幌市中央区南18条西14丁目1-23 カサ・デ・バリオ2F",
        "phoneNumber": "011-303-1188",
        "url": "http://www.arita-tax.jp/",
        "benefit": "コンサポ割、始めました。",
        "comment": "貴方の税のお悩みとコンサ愛は、当事務所へお任せあれ。",
        "continuationYears": 4
      }
    },
    {
      "type": "Feature",
      "geometry": {
        "type": "Point",
        "coordinates": [
          144.3636123,
          43.01662229999999
        ]
      },
      "properties": {
        "name": "あさの皮フ科クリニック",
        "category": "病院・医療",
        "region": "道東",
        "rank": "ブロンズ",
        "work": "病院・医療",
        "postalCode": "084-0909",
        "address": "釧路市昭和町3丁目9番5号",
        "phoneNumber": "0154-55-4112",
        "url": "http://asanohifuka.or.jp",
        "benefit": "",
        "comment": "",
        "continuationYears": 3
      }
    },
    {
      "type": "Feature",
      "geometry": {
        "type": "Point",
        "coordinates": [
          140.792323,
          43.18655200000001
        ]
      },
      "properties": {
        "name": "余市町　大正堂薬局",
        "category": "病院・医療",
        "region": "道央",
        "rank": "ブロンズ",
        "work": "調剤薬局",
        "postalCode": "046-0003",
        "address": "余市町黒川町7丁目35番地",
        "phoneNumber": "0135-48-5555",
        "url": "",
        "benefit": "",
        "comment": "真心を込めて健康もサポートします",
        "continuationYears": 3
      }
    },
    {
      "type": "Feature",
      "geometry": {
        "type": "Point",
        "coordinates": [
          141.3302358,
          43.0568828
        ]
      },
      "properties": {
        "name": "アパマンショップ大通西18丁目店",
        "category": "不動産業",
        "region": "道央",
        "rank": "ブロンズ",
        "work": "不動産業",
        "postalCode": "060-0042",
        "address": "札幌市中央区大通西17丁目1-20 ライオンズMS第8大通１F",
        "phoneNumber": "011-612-8818",
        "url": "http://www.apaman-nihonchiken.com",
        "benefit": "お部屋を探されている方紹介ください。お礼をご用意しております。",
        "comment": "当社は北海道のスポーツを応援しております",
        "continuationYears": 4
      }
    },
    {
      "type": "Feature",
      "geometry": {
        "type": "Point",
        "coordinates": [
          141.3337783,
          43.0572674
        ]
      },
      "properties": {
        "name": "伊東幹世税理士事務所",
        "category": "法律関係",
        "region": "道央",
        "rank": "ブロンズ",
        "work": "税理士業",
        "postalCode": "060-0042",
        "address": "札幌市中央区大通西15丁目1-13 ニューライフ大通公園302",
        "phoneNumber": "011-631-0001",
        "url": "",
        "benefit": "",
        "comment": "",
        "continuationYears": 4
      }
    },
    {
      "type": "Feature",
      "geometry": {
        "type": "Point",
        "coordinates": [
          142.3650528,
          43.7679516
        ]
      },
      "properties": {
        "name": "医療法人社団かねた皮膚科クリニック",
        "category": "病院・医療",
        "region": "道北",
        "rank": "ゴールド",
        "work": "病院・医療",
        "postalCode": "070-0034",
        "address": "旭川市4条通10丁目2233-2",
        "phoneNumber": "0166-23-2737",
        "url": "https://www.kaneta-hifuka.clinic/",
        "benefit": "",
        "comment": "がんばれ！コンサドーレ！！目指せＡＣＬ！",
        "continuationYears": 3
      }
    },
    {
      "type": "Feature",
      "geometry": {
        "type": "Point",
        "coordinates": [
          141.3716078,
          43.093174
        ]
      },
      "properties": {
        "name": "アパマンショップ元町店",
        "category": "不動産業",
        "region": "道央",
        "rank": "ブロンズ",
        "work": "不動産業",
        "postalCode": "007-0841",
        "address": "札幌市東区北23条東15丁目5-25ノーブル23",
        "phoneNumber": "011-733-1650",
        "url": "http://www.apaman-nihonchiken.com",
        "benefit": "お部屋の契約で、1ヶ月分の家賃をサービス致します",
        "comment": "野々村社長をガッチリサポート",
        "continuationYears": 4
      }
    },
    {
      "type": "Feature",
      "geometry": {
        "type": "Point",
        "coordinates": [
          141.3703545,
          43.0965047
        ]
      },
      "properties": {
        "name": "Hair Cut Space ゴラッソ",
        "category": "その他",
        "region": "道央",
        "rank": "ブロンズ",
        "work": "理容業",
        "postalCode": "065-0026",
        "address": "札幌市東区北26条東15丁目1-40 ローヤルハイツ26",
        "phoneNumber": "011-838-8945",
        "url": "",
        "benefit": "チームが勝利した翌日以降は得点数と同じ日数来店ポイント3倍",
        "comment": "サッカーを観ながらヘアースタイルをきめましょう‼",
        "continuationYears": 3
      }
    },
    {
      "type": "Feature",
      "geometry": {
        "type": "Point",
        "coordinates": [
          141.3169116,
          43.0638542
        ]
      },
      "properties": {
        "name": "株式会社　イーホライズン",
        "category": "不動産業",
        "region": "道央",
        "rank": "ゴールド",
        "work": "不動産業",
        "postalCode": "060-0006",
        "address": "札幌市中央区北6条西25丁目2-5",
        "phoneNumber": "011-612-9330",
        "url": "http://www.e-horizon.co.jp/",
        "benefit": "クラブコンサドーレ会員証提示で仲介手数料無料　※売買・テナント除く",
        "comment": "道内管理戸数5,000超！ピタットハウス加盟店。不動産管理・賃貸・売買に関するご相談は当社にお任せ！",
        "continuationYears": 5
      }
    },
    {
      "type": "Feature",
      "geometry": {
        "type": "Point",
        "coordinates": [
          141.352906,
          43.0559416
        ]
      },
      "properties": {
        "name": "夜空のジンギスカン すすきの交差点前",
        "category": "飲料・食品",
        "region": "道央",
        "rank": "シルバー",
        "work": "飲食業",
        "postalCode": "064-0804",
        "address": "札幌市中央区南4条西4丁目恵愛ビル5F",
        "phoneNumber": "011-200-8929",
        "url": "http://www.yozojin.com",
        "benefit": "",
        "comment": "食べてく？ジンギスカン",
        "continuationYears": 4
      }
    },
    {
      "type": "Feature",
      "geometry": {
        "type": "Point",
        "coordinates": [
          141.615794,
          42.6306421
        ]
      },
      "properties": {
        "name": "かき小屋 海の駅",
        "category": "飲料・食品",
        "region": "道央",
        "rank": "シルバー",
        "work": "飲食店・マリーナ業",
        "postalCode": "053-0004",
        "address": "苫小牧市港町2丁目2-5",
        "phoneNumber": "0144-56-5931",
        "url": "http://uminoeki.info/kakikoya2.html",
        "benefit": "",
        "comment": "北海道コンサドーレ札幌を熱く応援している苫小牧のお店です。",
        "continuationYears": 3
      }
    },
    {
      "type": "Feature",
      "geometry": {
        "type": "Point",
        "coordinates": [
          141.6496257,
          42.8270113
        ]
      },
      "properties": {
        "name": "ファミリー歯科クリニック",
        "category": "病院・医療",
        "region": "道央",
        "rank": "ブロンズ",
        "work": "歯科医院",
        "postalCode": "066-0062",
        "address": "千歳市千代田町6丁目22",
        "phoneNumber": "0123-26-2293",
        "url": "",
        "benefit": "",
        "comment": "",
        "continuationYears": 9
      }
    },
    {
      "type": "Feature",
      "geometry": {
        "type": "Point",
        "coordinates": [
          144.6636897,
          43.913628
        ]
      },
      "properties": {
        "name": "司法書士・行政書士遠藤雄大事務所",
        "category": "法律関係",
        "region": "道東",
        "rank": "ブロンズ",
        "work": "司法書士、行政書士",
        "postalCode": "099-4112",
        "address": "斜里郡斜里町港町5番地9",
        "phoneNumber": "0152-23-3640",
        "url": "",
        "benefit": "",
        "comment": "知床・斜里町のコンサ大好き司法書士、行政書士事務所です。気軽にご相談ください。誠心誠意対応いたします。",
        "continuationYears": 4
      }
    },
    {
      "type": "Feature",
      "geometry": {
        "type": "Point",
        "coordinates": [
          141.3411402,
          43.1171172
        ]
      },
      "properties": {
        "name": "株式会社　インフィニティ",
        "category": "建設関係",
        "region": "道央",
        "rank": "シルバー",
        "work": "一級建築士事務所",
        "postalCode": "001-0912",
        "address": "札幌市北区新琴似12条1丁目1番33号",
        "phoneNumber": "011-708-1500",
        "url": "http://www.infiniti2008.jp",
        "benefit": "",
        "comment": "",
        "continuationYears": 7
      }
    },
    {
      "type": "Feature",
      "geometry": {
        "type": "Point",
        "coordinates": [
          141.2760986,
          43.0898276
        ]
      },
      "properties": {
        "name": "餃子と中華　つつみ人",
        "category": "飲料・食品",
        "region": "道央",
        "rank": "ブロンズ",
        "work": "飲食業",
        "postalCode": "063-0051",
        "address": "札幌市西区宮の沢1条1丁目6-27",
        "phoneNumber": "011-624-6399",
        "url": "http://tsutsumibito.com/",
        "benefit": "",
        "comment": "",
        "continuationYears": 2
      }
    },
    {
      "type": "Feature",
      "geometry": {
        "type": "Point",
        "coordinates": [
          141.4593042,
          42.97741449999999
        ]
      },
      "properties": {
        "name": "かねひろ　羊ケ丘通店",
        "category": "飲料・食品",
        "region": "道央",
        "rank": "ブロンズ",
        "work": "飲食業",
        "postalCode": "004-0814",
        "address": "札幌市清田区美しが丘4条7丁目1-1",
        "phoneNumber": "011-888-2233",
        "url": "",
        "benefit": "",
        "comment": "",
        "continuationYears": 3
      }
    },
    {
      "type": "Feature",
      "geometry": {
        "type": "Point",
        "coordinates": [
          141.3392388,
          43.0570044
        ]
      },
      "properties": {
        "name": "株式会社　ジャパンインシュアランスエージェント　 札幌支店",
        "category": "その他",
        "region": "道央",
        "rank": "ブロンズ",
        "work": "保険代理店",
        "postalCode": "060-0061",
        "address": "札幌市中央区南1条西12丁目322",
        "phoneNumber": "011-241-7686",
        "url": "http://www.jianet.jp/",
        "benefit": "粗品贈呈",
        "comment": "すべての保険をあらゆるかたちで・・・",
        "continuationYears": 16
      }
    },
    {
      "type": "Feature",
      "geometry": {
        "type": "Point",
        "coordinates": [
          141.3928506,
          43.0278804
        ]
      },
      "properties": {
        "name": "合同会社　スノーベル",
        "category": "その他",
        "region": "道央",
        "rank": "シルバー",
        "work": "ダンス教室運営",
        "postalCode": "062-0022",
        "address": "札幌市豊平区月寒西2条8丁目3-16-501",
        "phoneNumber": "011-856-1132",
        "url": "http://snowbell.c-co.jp",
        "benefit": "ダンス教室（スタジオNEO）入会金５０％OFF",
        "comment": "",
        "continuationYears": 6
      }
    },
    {
      "type": "Feature",
      "geometry": {
        "type": "Point",
        "coordinates": [
          141.5596682,
          42.8991552
        ]
      },
      "properties": {
        "name": "合同容器　株式会社",
        "category": "その他",
        "region": "道央",
        "rank": "シルバー",
        "work": "段ボール製造業",
        "postalCode": "061-1492",
        "address": "恵庭市北柏木町3丁目39番",
        "phoneNumber": "0123-32-4185",
        "url": "http://www.godoyoki.co.jp",
        "benefit": "",
        "comment": "合同容器はサポートシップパートナーを通じて、北海道コンサドーレ札幌を応援します",
        "continuationYears": 3
      }
    },
    {
      "type": "Feature",
      "geometry": {
        "type": "Point",
        "coordinates": [
          141.3390974,
          43.1094438
        ]
      },
      "properties": {
        "name": "医療法人社団　岩寺小児歯科医院",
        "category": "病院・医療",
        "region": "道央",
        "rank": "シルバー",
        "work": "歯科医業",
        "postalCode": "001-0045",
        "address": "札幌市北区麻生町２丁目4-5",
        "phoneNumber": "011-758-7736",
        "url": "http://www.iwadera.com",
        "benefit": "",
        "comment": "ガンバレコンサドーレ！！ガンバレハミガキ！！",
        "continuationYears": 22
      }
    },
    {
      "type": "Feature",
      "geometry": {
        "type": "Point",
        "coordinates": [
          141.3414911,
          43.0584089
        ]
      },
      "properties": {
        "name": "医療法人社団　デンタルクリニック大通り",
        "category": "病院・医療",
        "region": "道央",
        "rank": "ブロンズ",
        "work": "歯科医院",
        "postalCode": "060-0042",
        "address": "札幌市中央区大通西10丁目4番地 南大通ビル2F",
        "phoneNumber": "011-251-7676",
        "url": "http://www.odori-d.com",
        "benefit": "",
        "comment": "",
        "continuationYears": 21
      }
    },
    {
      "type": "Feature",
      "geometry": {
        "type": "Point",
        "coordinates": [
          141.3619843,
          43.0869023
        ]
      },
      "properties": {
        "name": "フラワー調剤",
        "category": "病院・医療",
        "region": "道央",
        "rank": "ブロンズ",
        "work": "調剤薬局",
        "postalCode": "065-0020",
        "address": "札幌市東区北20条東7丁目1‐25 アイエムビル1F",
        "phoneNumber": "011-748-7658",
        "url": "",
        "benefit": "",
        "comment": "",
        "continuationYears": 18
      }
    },
    {
      "type": "Feature",
      "geometry": {
        "type": "Point",
        "coordinates": [
          141.8116709,
          42.8772198
        ]
      },
      "properties": {
        "name": "赤いひまわり薬局",
        "category": "病院・医療",
        "region": "道央",
        "rank": "ブロンズ",
        "work": "調剤薬局",
        "postalCode": "059-1911",
        "address": "勇払郡安平町追分本町１丁目37-3",
        "phoneNumber": "0145-26-6555",
        "url": "",
        "benefit": "",
        "comment": "",
        "continuationYears": 16
      }
    },
    {
      "type": "Feature",
      "geometry": {
        "type": "Point",
        "coordinates": [
          141.3132435,
          43.1715042
        ]
      },
      "properties": {
        "name": "花畔動物病院",
        "category": "病院・医療",
        "region": "道央",
        "rank": "ブロンズ",
        "work": "動物病院",
        "postalCode": "061-3282",
        "address": "石狩市花畔2条1丁目172",
        "phoneNumber": "0133-64-2100",
        "url": "",
        "benefit": "",
        "comment": "",
        "continuationYears": 16
      }
    },
    {
      "type": "Feature",
      "geometry": {
        "type": "Point",
        "coordinates": [
          141.3323912,
          42.9881567
        ]
      },
      "properties": {
        "name": "とざわ鍼灸マッサージ治療院",
        "category": "病院・医療",
        "region": "道央",
        "rank": "ブロンズ",
        "work": "鍼・灸・マッサージ",
        "postalCode": "005-0807",
        "address": "札幌市南区川沿7条2丁目3-28",
        "phoneNumber": "011-572-3847",
        "url": "",
        "benefit": "会員は初診料（1000円）無料",
        "comment": "今年こそACLへ",
        "continuationYears": 14
      }
    },
    {
      "type": "Feature",
      "geometry": {
        "type": "Point",
        "coordinates": [
          141.4107139,
          43.0921818
        ]
      },
      "properties": {
        "name": "新井眼科クリニック",
        "category": "病院・医療",
        "region": "道央",
        "rank": "ブロンズ",
        "work": "眼科",
        "postalCode": "007-0806",
        "address": "札幌市東区東苗穂6条2丁目9-15",
        "phoneNumber": "011-785-7707",
        "url": "http://www.arai-eye.com",
        "benefit": "",
        "comment": "もうチームの力はついた。J1優勝しかない！！",
        "continuationYears": 14
      }
    },
    {
      "type": "Feature",
      "geometry": {
        "type": "Point",
        "coordinates": [
          143.158928,
          42.8826885
        ]
      },
      "properties": {
        "name": "こひつじ薬局",
        "category": "病院・医療",
        "region": "道東",
        "rank": "ブロンズ",
        "work": "薬局",
        "postalCode": "080-0862",
        "address": "帯広市南の森西9丁目11番16号",
        "phoneNumber": "0155-49-3322",
        "url": "",
        "benefit": "",
        "comment": "",
        "continuationYears": 13
      }
    },
    {
      "type": "Feature",
      "geometry": {
        "type": "Point",
        "coordinates": [
          141.3143792,
          43.0630436
        ]
      },
      "properties": {
        "name": "宮の森メンタルクリニック",
        "category": "病院・医療",
        "region": "道央",
        "rank": "ブロンズ",
        "work": "心療内科",
        "postalCode": "064-0825",
        "address": "札幌市中央区北5条西27丁目3-12 ネオアージュ円山2F",
        "phoneNumber": "011-633-6233",
        "url": "http://www.miyanomorimental.com",
        "benefit": "",
        "comment": "心の健康にはコンサの勝利が一番！",
        "continuationYears": 12
      }
    },
    {
      "type": "Feature",
      "geometry": {
        "type": "Point",
        "coordinates": [
          141.6496782,
          42.6599694
        ]
      },
      "properties": {
        "name": "焼肉おうじゅう",
        "category": "飲料・食品",
        "region": "道南",
        "rank": "ブロンズ",
        "work": "焼肉店",
        "postalCode": "053-0053",
        "address": "苫小牧市柳町2丁目7番9号",
        "phoneNumber": "0144-53-1129",
        "url": "http://www.flv-corp.co.jp/",
        "benefit": "",
        "comment": "",
        "continuationYears": 4
      }
    },
    {
      "type": "Feature",
      "geometry": {
        "type": "Point",
        "coordinates": [
          141.3534666,
          43.0668972
        ]
      },
      "properties": {
        "name": "炭火焼と海鮮 手づくり豆腐　　まいど！",
        "category": "飲料・食品",
        "region": "道央",
        "rank": "ブロンズ",
        "work": "居酒屋",
        "postalCode": "060-0004",
        "address": "札幌市中央区北4条西2丁目1番地 キタコートレードビル2F",
        "phoneNumber": "011-205-0433",
        "url": "http://maido-sapporo.com",
        "benefit": "勝利の日ユニフォームｏｒマフラー着用のご来店でドリンク全品100円‼",
        "comment": "札幌駅南口店では店内で観戦出来ます！一緒に応援しよう！",
        "continuationYears": 3
      }
    },
    {
      "type": "Feature",
      "geometry": {
        "type": "Point",
        "coordinates": [
          143.6630734,
          44.174309
        ]
      },
      "properties": {
        "name": "喜多牧場",
        "category": "その他",
        "region": "道北",
        "rank": "シルバー",
        "work": "酪農業",
        "postalCode": "093-0731",
        "address": "紋別郡湧別町芭露18-12",
        "phoneNumber": "0158-64-5001",
        "url": "https://yubetsu-kita-farm.amebaownd.com",
        "benefit": "",
        "comment": "オホーツクの町ゆうべつから北海道コンサドーレ札幌を応援しています。",
        "continuationYears": 3
      }
    },
    {
      "type": "Feature",
      "geometry": {
        "type": "Point",
        "coordinates": [
          141.6663406,
          42.8325583
        ]
      },
      "properties": {
        "name": "医療法人社団　住吉こどもクリニック",
        "category": "病院・医療",
        "region": "道央",
        "rank": "シルバー",
        "work": "小児科診療所",
        "postalCode": "066-0026",
        "address": "千歳市住吉3丁目16-10",
        "phoneNumber": "0123-40-2344",
        "url": "http://www.sumiyoshi-kodomo.com/",
        "benefit": "",
        "comment": "まずは今年も残留。そして埼玉に忘れ物をとりに行こう。",
        "continuationYears": 11
      }
    },
    {
      "type": "Feature",
      "geometry": {
        "type": "Point",
        "coordinates": [
          141.3971409,
          43.030375
        ]
      },
      "properties": {
        "name": "かとう眼科クリニック",
        "category": "病院・医療",
        "region": "道央",
        "rank": "ブロンズ",
        "work": "眼科診療所",
        "postalCode": "062-0020",
        "address": "札幌市豊平区月寒中央通7丁目6-20 JA月寒中央ビル5F",
        "phoneNumber": "011-855-3030",
        "url": "http://www.myclinic.ne.jp/katoeyecl",
        "benefit": "",
        "comment": "みんなが笑顔でいられますように",
        "continuationYears": 9
      }
    },
    {
      "type": "Feature",
      "geometry": {
        "type": "Point",
        "coordinates": [
          141.3090964,
          42.9613392
        ]
      },
      "properties": {
        "name": "ふじのさわ内科クリニック",
        "category": "病院・医療",
        "region": "道央",
        "rank": "プラチナ",
        "work": "内科クリニック",
        "postalCode": "061-2282",
        "address": "札幌市南区藤野2条2丁目1-15",
        "phoneNumber": "011-591-8416",
        "url": "",
        "benefit": "",
        "comment": "応援します！Ｊ１上位定着！",
        "continuationYears": 8
      }
    },
    {
      "type": "Feature",
      "geometry": {
        "type": "Point",
        "coordinates": [
          141.3128789,
          43.071002
        ]
      },
      "properties": {
        "name": "小林歯科医院",
        "category": "病院・医療",
        "region": "道央",
        "rank": "ブロンズ",
        "work": "歯科医院",
        "postalCode": "063-0802",
        "address": "札幌市西区二十四軒2条4丁目2-11 日商岩井琴似マンション108",
        "phoneNumber": "011-642-8225",
        "url": "",
        "benefit": "",
        "comment": "",
        "continuationYears": 7
      }
    },
    {
      "type": "Feature",
      "geometry": {
        "type": "Point",
        "coordinates": [
          127.6894869,
          26.2046119
        ]
      },
      "properties": {
        "name": "医療法人誠志会　赤嶺歯科クリニック",
        "category": "病院・医療",
        "region": "道外",
        "rank": "シルバー",
        "work": "歯科医業",
        "postalCode": "",
        "address": "900-0023　沖縄県那覇市楚辺2-25-9",
        "phoneNumber": "098-834-2562",
        "url": "http://www.akaminedc.com",
        "benefit": "",
        "comment": "沖縄から熱く応援しています！",
        "continuationYears": 6
      }
    },
    {
      "type": "Feature",
      "geometry": {
        "type": "Point",
        "coordinates": [
          141.0102955,
          42.3338965
        ]
      },
      "properties": {
        "name": "有限会社　水元建設",
        "category": "建設関係",
        "region": "道央",
        "rank": "ブロンズ",
        "work": "建設業",
        "postalCode": "050-0085",
        "address": "室蘭市輪西町1丁目32番14号",
        "phoneNumber": "0143-47-8019",
        "url": "",
        "benefit": "",
        "comment": "",
        "continuationYears": 5
      }
    },
    {
      "type": "Feature",
      "geometry": {
        "type": "Point",
        "coordinates": [
          141.3507364,
          43.0568473
        ]
      },
      "properties": {
        "name": "よりあい酒場 f CLUB",
        "category": "飲料・食品",
        "region": "道央",
        "rank": "ブロンズ",
        "work": "飲食業",
        "postalCode": "060-0063",
        "address": "札幌市中央区南3条西5丁目 三条美松ビル3F",
        "phoneNumber": "011-231-4151",
        "url": "",
        "benefit": "",
        "comment": "サッポロクラシックを美味しく飲みながらコンサドーレ話で盛り上がろう！",
        "continuationYears": 23
      }
    },
    {
      "type": "Feature",
      "geometry": {
        "type": "Point",
        "coordinates": [
          141.3648879,
          43.0106629
        ]
      },
      "properties": {
        "name": "ほっと12",
        "category": "飲料・食品",
        "region": "道央",
        "rank": "ブロンズ",
        "work": "たこ焼き移動販売",
        "postalCode": "005-0003",
        "address": "札幌市南区澄川3条5丁目3-10-801",
        "phoneNumber": "090-2870-7119",
        "url": "http://www.hot12.jp/",
        "benefit": "たこ焼き1パック400円（税込）のところを300円にて提供します。",
        "comment": "ほっとなたこ焼きでコンサを熱く応援！",
        "continuationYears": 20
      }
    },
    {
      "type": "Feature",
      "geometry": {
        "type": "Point",
        "coordinates": [
          141.4047337,
          43.0831938
        ]
      },
      "properties": {
        "name": "株式会社 アントレ",
        "category": "飲料・食品",
        "region": "道央",
        "rank": "ゴールド",
        "work": "食肉加工",
        "postalCode": "007-0802",
        "address": "札幌市東区東苗穂2条3丁目3番5号",
        "phoneNumber": "011-783-5050",
        "url": "",
        "benefit": "",
        "comment": "",
        "continuationYears": 20
      }
    },
    {
      "type": "Feature",
      "geometry": {
        "type": "Point",
        "coordinates": [
          141.4698775,
          43.0361049
        ]
      },
      "properties": {
        "name": "チキンペッカー",
        "category": "飲料・食品",
        "region": "道央",
        "rank": "ブロンズ",
        "work": "飲食業",
        "postalCode": "004-0052",
        "address": "札幌市厚別区厚別中央2条4丁目11-39",
        "phoneNumber": "011-894-2989",
        "url": "http://www.chickenpecker.com/",
        "benefit": "",
        "comment": "",
        "continuationYears": 15
      }
    },
    {
      "type": "Feature",
      "geometry": {
        "type": "Point",
        "coordinates": [
          141.351761,
          43.05583499999999
        ]
      },
      "properties": {
        "name": "Bar DonBe",
        "category": "飲料・食品",
        "region": "道央",
        "rank": "ブロンズ",
        "work": "スポーツバー",
        "postalCode": "064-0804",
        "address": "札幌市中央区南4条西4丁目14-2 MYプラザビルB1F",
        "phoneNumber": "011-241-5435",
        "url": "",
        "benefit": "",
        "comment": "",
        "continuationYears": 14
      }
    },
    {
      "type": "Feature",
      "geometry": {
        "type": "Point",
        "coordinates": [
          141.6765791,
          42.8207809
        ]
      },
      "properties": {
        "name": "　野村運送",
        "category": "その他",
        "region": "道央",
        "rank": "ブロンズ",
        "work": "軽貨物運送業",
        "postalCode": "066-0019",
        "address": "千歳市流通1丁目4-9",
        "phoneNumber": "0123-22-6033",
        "url": "",
        "benefit": "「コンサドーレ応援してます」とお伝えいただいたら、通常見積より20%OFF",
        "comment": "全員一丸でタイトル獲りましょう‼",
        "continuationYears": 8
      }
    },
    {
      "type": "Feature",
      "geometry": {
        "type": "Point",
        "coordinates": [
          140.7709009,
          41.8003369
        ]
      },
      "properties": {
        "name": "キッチン　デューク",
        "category": "飲料・食品",
        "region": "道南",
        "rank": "ブロンズ",
        "work": "飲食店",
        "postalCode": "041-0851",
        "address": "函館市本通り2丁目40-14",
        "phoneNumber": "0138-32-7311",
        "url": "",
        "benefit": "",
        "comment": "",
        "continuationYears": 13
      }
    },
    {
      "type": "Feature",
      "geometry": {
        "type": "Point",
        "coordinates": [
          141.3525077,
          43.0559131
        ]
      },
      "properties": {
        "name": "北海料理 コロポックル",
        "category": "飲料・食品",
        "region": "道央",
        "rank": "ブロンズ",
        "work": "飲食業",
        "postalCode": "064-0804",
        "address": "札幌市中央区南4条西4丁目7番地 松岡ビル3F",
        "phoneNumber": "011-241-4646",
        "url": "http://www.koropokkuru.co.jp",
        "benefit": "単品料理の10%割引（カード不可、現金払いのみ）",
        "comment": "北海道の新鮮な魚貝類とりたて旬の野菜を提供してます。創業44年目です。",
        "continuationYears": 11
      }
    },
    {
      "type": "Feature",
      "geometry": {
        "type": "Point",
        "coordinates": [
          141.4020923,
          43.0168008
        ]
      },
      "properties": {
        "name": "居魚や かくれんぼ",
        "category": "飲料・食品",
        "region": "道央",
        "rank": "ブロンズ",
        "work": "居酒屋",
        "postalCode": "062-0042",
        "address": "札幌市豊平区福住2条2丁目9-14",
        "phoneNumber": "011-851-0703",
        "url": "",
        "benefit": "",
        "comment": "",
        "continuationYears": 10
      }
    },
    {
      "type": "Feature",
      "geometry": {
        "type": "Point",
        "coordinates": [
          139.773479,
          35.70622
        ]
      },
      "properties": {
        "name": "壱鉄",
        "category": "飲料・食品",
        "region": "道外",
        "rank": "シルバー",
        "work": "飲食業",
        "postalCode": "",
        "address": "110-0005　東京都台東区上野3丁目22-3　ジイドビルB1F",
        "phoneNumber": "03-3836-6262",
        "url": "",
        "benefit": "サポーター様ご来店時　ラムチョップ人数分サービス！！",
        "comment": "東京での聖地目指します！！",
        "continuationYears": 8
      }
    },
    {
      "type": "Feature",
      "geometry": {
        "type": "Point",
        "coordinates": [
          139.8477758,
          42.4550886
        ]
      },
      "properties": {
        "name": "ハマト商店",
        "category": "卸売・小売",
        "region": "道南",
        "rank": "ブロンズ",
        "work": "卸・小売業",
        "postalCode": "049-4816",
        "address": "久遠郡せたな町瀬棚区本町81-1",
        "phoneNumber": "0137-87-2259",
        "url": "",
        "benefit": "",
        "comment": "",
        "continuationYears": 6
      }
    },
    {
      "type": "Feature",
      "geometry": null,
      "properties": {
        "name": "コンサドーレ札幌　旭川地区後援会",
        "category": "その他",
        "region": "道北",
        "rank": "ブロンズ",
        "work": "私設後援会",
        "postalCode": "",
        "address": "",
        "phoneNumber": "",
        "url": "http://asahikawa.consadole.to/",
        "benefit": "",
        "comment": "旭川からも熱く応援応援 ! ドーム直行のバスツアーやゲストを招いてのイベントも行っています！",
        "continuationYears": 3
      }
    },
    {
      "type": "Feature",
      "geometry": {
        "type": "Point",
        "coordinates": [
          141.2767744,
          43.0894143
        ]
      },
      "properties": {
        "name": "札幌弁当工房西店",
        "category": "飲料・食品",
        "region": "道央",
        "rank": "ブロンズ",
        "work": "お弁当店",
        "postalCode": "063-0051",
        "address": "札幌市西区宮の沢1条1丁目6-36",
        "phoneNumber": "011-669-8111",
        "url": "http://satuben.jp/",
        "benefit": "",
        "comment": "当店も負けずに“うまさと早さで！”",
        "continuationYears": 8
      }
    },
    {
      "type": "Feature",
      "geometry": {
        "type": "Point",
        "coordinates": [
          141.2736015,
          43.0772655
        ]
      },
      "properties": {
        "name": "ＧＥＬＡＴＥＲＩＡ　Ｇｅｒｅａｍ",
        "category": "飲料・食品",
        "region": "道央",
        "rank": "ブロンズ",
        "work": "ジェラートの製造・販売",
        "postalCode": "063-0033",
        "address": "札幌市西区西野３条７丁目５番１１−３",
        "phoneNumber": "011-661-0395",
        "url": "http://www.geream.com/",
        "benefit": "ジェラートダブルご注文でトリプルにします。ご本人様のみ（他サービスとの併用不可）",
        "comment": "コンサドーレが勝った次の日は赤と黒のジェラートを作ってます‼",
        "continuationYears": 7
      }
    },
    {
      "type": "Feature",
      "geometry": {
        "type": "Point",
        "coordinates": [
          141.2740549,
          43.0864881
        ]
      },
      "properties": {
        "name": "らーめん　四代目　いちまる　宮の沢店",
        "category": "飲料・食品",
        "region": "道央",
        "rank": "ブロンズ",
        "work": "飲食店（ラーメン）",
        "postalCode": "063-0062",
        "address": "札幌市西区西町南21丁目1-20",
        "phoneNumber": "011-666-1408",
        "url": "http://sapporo-ichimaru.com/",
        "benefit": "味付玉子　１個サービス",
        "comment": "宮の沢練習場から徒歩圏にあるお店です。応援の後に是非お立ち寄りください。",
        "continuationYears": 6
      }
    },
    {
      "type": "Feature",
      "geometry": {
        "type": "Point",
        "coordinates": [
          141.4562629,
          43.02057560000001
        ]
      },
      "properties": {
        "name": "かづき",
        "category": "その他",
        "region": "道央",
        "rank": "ブロンズ",
        "work": "洋服のお直し",
        "postalCode": "004-0880",
        "address": "札幌市清田区平岡10条1丁目8-12",
        "phoneNumber": "011-802-5981",
        "url": "",
        "benefit": "",
        "comment": "洋服・小物のお直し承ります！",
        "continuationYears": 3
      }
    },
    {
      "type": "Feature",
      "geometry": {
        "type": "Point",
        "coordinates": [
          141.4553154,
          43.0300007
        ]
      },
      "properties": {
        "name": "カフェ　カントリースノウ",
        "category": "飲料・食品",
        "region": "道央",
        "rank": "ブロンズ",
        "work": "飲食店",
        "postalCode": "004-0052",
        "address": "札幌市厚別区厚別中央2条1丁目１-3",
        "phoneNumber": "090-3776-3455",
        "url": "",
        "benefit": "",
        "comment": "",
        "continuationYears": 6
      }
    },
    {
      "type": "Feature",
      "geometry": {
        "type": "Point",
        "coordinates": [
          144.3885237,
          42.9842191
        ]
      },
      "properties": {
        "name": "ＡＱＵＡ　ＤＲＯＰ",
        "category": "飲料・食品",
        "region": "道東",
        "rank": "ブロンズ",
        "work": "飲食業",
        "postalCode": "084-0013",
        "address": "釧路市栄町4-2 ＭＴヒルズ3Ｆ",
        "phoneNumber": "0154-24-4580",
        "url": "",
        "benefit": "",
        "comment": "",
        "continuationYears": 5
      }
    },
    {
      "type": "Feature",
      "geometry": {
        "type": "Point",
        "coordinates": [
          142.3928125,
          44.1811953
        ]
      },
      "properties": {
        "name": "有限会社　中田ガラス店",
        "category": "卸売・小売",
        "region": "道北",
        "rank": "ブロンズ",
        "work": "ガラス・建材・家具販売",
        "postalCode": "095-0002",
        "address": "士別市東2条北1丁目-1",
        "phoneNumber": "0165-23-3661",
        "url": "http://www.n-escargot.jp",
        "benefit": "",
        "comment": "",
        "continuationYears": 18
      }
    },
    {
      "type": "Feature",
      "geometry": {
        "type": "Point",
        "coordinates": [
          141.3447177,
          43.0299897
        ]
      },
      "properties": {
        "name": "フローラル 明日花",
        "category": "卸売・小売",
        "region": "道央",
        "rank": "ブロンズ",
        "work": "生花小売業",
        "postalCode": "064-0922",
        "address": "札幌市中央区南22条西11丁目1-6",
        "phoneNumber": "011-522-0087",
        "url": "http://www.flower-ne.jp",
        "benefit": "",
        "comment": "行先は　決まっている",
        "continuationYears": 17
      }
    },
    {
      "type": "Feature",
      "geometry": {
        "type": "Point",
        "coordinates": [
          141.6889481,
          43.0118286
        ]
      },
      "properties": {
        "name": "Ｋｉｔａｋａｒａ",
        "category": "飲料・食品",
        "region": "道央",
        "rank": "ブロンズ",
        "work": "健康福祉・ポップコーン販売",
        "postalCode": "069-1334",
        "address": "夕張郡長沼町錦町北１丁目７−２",
        "phoneNumber": "0123-76-7911",
        "url": "http://www.ameblo.jp/popsaku",
        "benefit": "",
        "comment": "コンサドーレとともに世界へ！これからも応援し続けます。",
        "continuationYears": 9
      }
    },
    {
      "type": "Feature",
      "geometry": {
        "type": "Point",
        "coordinates": [
          141.3961805,
          43.0137623
        ]
      },
      "properties": {
        "name": "株式会社どうしん　中川販売店",
        "category": "新聞販売",
        "region": "道央",
        "rank": "ブロンズ",
        "work": "新聞販売",
        "postalCode": "062-0041",
        "address": "札幌市豊平区福住1条5丁目8-22",
        "phoneNumber": "011-852-4138",
        "url": "http://www.e-shinbun.co.jp/",
        "benefit": "クラブ会員証提示で、当店書籍類を5%引き。（どうしん中川）で検索。",
        "comment": "コンサドーレニュースは道新&道新スポーツで。月刊コンサの申し込み当店はホームページからも受け付け中。",
        "continuationYears": 20
      }
    },
    {
      "type": "Feature",
      "geometry": {
        "type": "Point",
        "coordinates": [
          141.4546345,
          43.0098118
        ]
      },
      "properties": {
        "name": "有限会社　道新ながさわ",
        "category": "新聞販売",
        "region": "道央",
        "rank": "ブロンズ",
        "work": "新聞販売業",
        "postalCode": "004-0876",
        "address": "札幌市清田区平岡6条2丁目3-15",
        "phoneNumber": "011-881-5006",
        "url": "",
        "benefit": "",
        "comment": "",
        "continuationYears": 18
      }
    },
    {
      "type": "Feature",
      "geometry": {
        "type": "Point",
        "coordinates": [
          141.2726248,
          43.1006363
        ]
      },
      "properties": {
        "name": "有限会社　道新谷口販売所",
        "category": "新聞販売",
        "region": "道央",
        "rank": "ブロンズ",
        "work": "新聞販売業",
        "postalCode": "063-0829",
        "address": "札幌市西区発寒9条14丁目516番地160",
        "phoneNumber": "011-662-6833",
        "url": "",
        "benefit": "",
        "comment": "",
        "continuationYears": 13
      }
    },
    {
      "type": "Feature",
      "geometry": {
        "type": "Point",
        "coordinates": [
          141.4760688,
          43.0306796
        ]
      },
      "properties": {
        "name": "株式会社　道新販売センター",
        "category": "新聞販売",
        "region": "道央",
        "rank": "ブロンズ",
        "work": "新聞販売業",
        "postalCode": "004-0021",
        "address": "札幌市厚別区青葉町6丁目1-33",
        "phoneNumber": "011-891-8189",
        "url": "",
        "benefit": "",
        "comment": "道民のための企業活動を目指して",
        "continuationYears": 13
      }
    },
    {
      "type": "Feature",
      "geometry": {
        "type": "Point",
        "coordinates": [
          141.6453517,
          42.8225454
        ]
      },
      "properties": {
        "name": "有限会社　弘和",
        "category": "その他",
        "region": "道央",
        "rank": "ブロンズ",
        "work": "保険代理店業",
        "postalCode": "066-0063",
        "address": "千歳市幸町1丁目11 ドミトリィ雄飛1F",
        "phoneNumber": "0123-26-6877",
        "url": "",
        "benefit": "",
        "comment": "",
        "continuationYears": 19
      }
    },
    {
      "type": "Feature",
      "geometry": {
        "type": "Point",
        "coordinates": [
          144.9784119,
          43.5517087
        ]
      },
      "properties": {
        "name": "株式会社 トータルサポート24",
        "category": "その他",
        "region": "道東",
        "rank": "ブロンズ",
        "work": "保険代理店",
        "postalCode": "086-1046",
        "address": "標津郡中標津町東6条北1丁目1番地",
        "phoneNumber": "0153-73-4533",
        "url": "",
        "benefit": "",
        "comment": "",
        "continuationYears": 13
      }
    },
    {
      "type": "Feature",
      "geometry": {
        "type": "Point",
        "coordinates": [
          141.3390853,
          43.0567386
        ]
      },
      "properties": {
        "name": "山崎克巳税理士事務所",
        "category": "法律関係",
        "region": "道央",
        "rank": "プラチナ",
        "work": "税理士",
        "postalCode": "060-0061",
        "address": "札幌市中央区南1条西12丁目322番地 壽時ビル",
        "phoneNumber": "011-281-2501",
        "url": "",
        "benefit": "",
        "comment": "",
        "continuationYears": 23
      }
    },
    {
      "type": "Feature",
      "geometry": {
        "type": "Point",
        "coordinates": [
          139.769584,
          35.7089252
        ]
      },
      "properties": {
        "name": "小関勝紀税理士事務所",
        "category": "法律関係",
        "region": "道外",
        "rank": "シルバー",
        "work": "会計事務所",
        "postalCode": "110-0008",
        "address": "東京都台東区池之端1-1-1　池之端ビル2F",
        "phoneNumber": "03-5688-5271",
        "url": "http://inter-tso.com/",
        "benefit": "",
        "comment": "今年こそ上位進出を！",
        "continuationYears": 17
      }
    },
    {
      "type": "Feature",
      "geometry": {
        "type": "Point",
        "coordinates": [
          141.3430017,
          43.0548059
        ]
      },
      "properties": {
        "name": "税理士法人 すずらん総合マネジメント",
        "category": "法律関係",
        "region": "道央",
        "rank": "ブロンズ",
        "work": "税理士事務所",
        "postalCode": "064-0804",
        "address": "札幌市中央区南4条西10丁目1004-2",
        "phoneNumber": "011-211-5492",
        "url": "http://www.suzurankaikei.com",
        "benefit": "相談料無料",
        "comment": "2020年J1優勝を祈念しております",
        "continuationYears": 10
      }
    },
    {
      "type": "Feature",
      "geometry": {
        "type": "Point",
        "coordinates": [
          141.341053,
          43.056938
        ]
      },
      "properties": {
        "name": "はちもり会計事務所",
        "category": "法律関係",
        "region": "道央",
        "rank": "シルバー",
        "work": "税理士事務所",
        "postalCode": "060-0061",
        "address": "札幌市中央区南1条西11丁目327-6    ワンズ南1条ビル3階",
        "phoneNumber": "011-213-1008",
        "url": "http://www.hachimori-tax.com",
        "benefit": "顧問料2ヶ月分無料",
        "comment": "北海道のためにがんばっています。",
        "continuationYears": 9
      }
    },
    {
      "type": "Feature",
      "geometry": {
        "type": "Point",
        "coordinates": [
          141.3516117,
          43.0596185
        ]
      },
      "properties": {
        "name": "弁護士法人 太田･小幡綜合法律事務所",
        "category": "法律関係",
        "region": "道央",
        "rank": "ゴールド",
        "work": "弁護士事務所",
        "postalCode": "060-0042",
        "address": "札幌市中央区大通西4丁目1番地 道銀ビル7階",
        "phoneNumber": "011-222-3251",
        "url": "http://www.oota-law.com",
        "benefit": "",
        "comment": "札幌・東京を拠点に法律に関するワンストップサービスをご提供します",
        "continuationYears": 8
      }
    },
    {
      "type": "Feature",
      "geometry": {
        "type": "Point",
        "coordinates": [
          141.0269251,
          42.3483048
        ]
      },
      "properties": {
        "name": "北海道みらい法律事務所",
        "category": "法律関係",
        "region": "道央",
        "rank": "プラチナ",
        "work": "法律事務所",
        "postalCode": "050-0083",
        "address": "室蘭市東町2丁目27番4号 セミナービル3階",
        "phoneNumber": "0143-83-4131",
        "url": "http://www.hokkaido-mirai.com/",
        "benefit": "会員の方は初回の法律相談無料！",
        "comment": "スポーツを通した青少年の健全育成を応援しています！",
        "continuationYears": 7
      }
    },
    {
      "type": "Feature",
      "geometry": {
        "type": "Point",
        "coordinates": [
          141.2643916,
          43.1346762
        ]
      },
      "properties": {
        "name": "医療法人社団　稲信会　まえだ森林クリニック",
        "category": "病院・医療",
        "region": "道央",
        "rank": "シルバー",
        "work": "内科・神経内科診療所",
        "postalCode": "006-0829",
        "address": "札幌市手稲区手稲前田496-11",
        "phoneNumber": "011-685-6060",
        "url": "",
        "benefit": "",
        "comment": "",
        "continuationYears": 17
      }
    },
    {
      "type": "Feature",
      "geometry": {
        "type": "Point",
        "coordinates": [
          142.4171655,
          43.7960131
        ]
      },
      "properties": {
        "name": "永山あゆみ保育園",
        "category": "その他",
        "region": "道北",
        "rank": "ブロンズ",
        "work": "保育所",
        "postalCode": "079-8415",
        "address": "旭川市永山5条9丁目4-6",
        "phoneNumber": "0166-48-0600",
        "url": "",
        "benefit": "",
        "comment": "",
        "continuationYears": 8
      }
    },
    {
      "type": "Feature",
      "geometry": {
        "type": "Point",
        "coordinates": [
          141.4344287,
          43.03138790000001
        ]
      },
      "properties": {
        "name": "学校法人 大藤学園",
        "category": "その他",
        "region": "道央",
        "rank": "ブロンズ",
        "work": "幼稚園",
        "postalCode": "003-0023",
        "address": "札幌市白石区南郷通18丁目北43",
        "phoneNumber": "011-864-5411",
        "url": "",
        "benefit": "",
        "comment": "",
        "continuationYears": 8
      }
    },
    {
      "type": "Feature",
      "geometry": {
        "type": "Point",
        "coordinates": [
          141.3112904,
          43.0837204
        ]
      },
      "properties": {
        "name": "株式会社　琴似宅建",
        "category": "不動産業",
        "region": "道央",
        "rank": "ブロンズ",
        "work": "不動産業",
        "postalCode": "063-0842",
        "address": "札幌市西区八軒2条西1丁目3番15号",
        "phoneNumber": "011-611-6512",
        "url": "http://kotonita.com",
        "benefit": "",
        "comment": "おもしろくなければサッカーじゃない",
        "continuationYears": 16
      }
    },
    {
      "type": "Feature",
      "geometry": {
        "type": "Point",
        "coordinates": [
          141.3499803,
          43.11510980000001
        ]
      },
      "properties": {
        "name": "株式会社　山二",
        "category": "不動産業",
        "region": "道央",
        "rank": "ブロンズ",
        "work": "不動産業",
        "postalCode": "007-0845",
        "address": "札幌市東区北45条東4丁目2-20",
        "phoneNumber": "011-753-5558",
        "url": "http://www.yama-ni.co.jp",
        "benefit": "仲介手数料10%引",
        "comment": "山二はコンサドーレと共にがんばっています。",
        "continuationYears": 14
      }
    },
    {
      "type": "Feature",
      "geometry": {
        "type": "Point",
        "coordinates": [
          141.3902461,
          43.0645977
        ]
      },
      "properties": {
        "name": "株式会社　アスクゲートグループ",
        "category": "その他",
        "region": "道央",
        "rank": "ブロンズ",
        "work": "業務コンサル",
        "postalCode": "003-0813",
        "address": "札幌市白石区菊水上町3条2丁目52-225",
        "phoneNumber": "011-833-3055",
        "url": "http://www.ask-s.co.jp/",
        "benefit": "",
        "comment": "人材派遣で全国をサポート！ご相談はアスクゲートグループへ",
        "continuationYears": 11
      }
    },
    {
      "type": "Feature",
      "geometry": {
        "type": "Point",
        "coordinates": [
          139.7562735,
          35.7811205
        ]
      },
      "properties": {
        "name": "北海道コンサドーレ札幌関東後援会",
        "category": "その他",
        "region": "道外",
        "rank": "ブロンズ",
        "work": "後援会",
        "postalCode": "123-0864",
        "address": "東京都足立区鹿浜4-10-17",
        "phoneNumber": "03-5647-5261",
        "url": "http://kanto.consadole.to/",
        "benefit": "",
        "comment": "まだ見ぬ景色のその先へ",
        "continuationYears": 16
      }
    },
    {
      "type": "Feature",
      "geometry": {
        "type": "Point",
        "coordinates": [
          144.1312385,
          43.1180832
        ]
      },
      "properties": {
        "name": "廹田建設　株式会社",
        "category": "建設関係",
        "region": "道東",
        "rank": "ブロンズ",
        "work": "建設業",
        "postalCode": "085-0217",
        "address": "釧路市阿寒町北町3丁目2-14",
        "phoneNumber": "0154-66-2492",
        "url": "http://www.sakuta-kk.com/",
        "benefit": "",
        "comment": "",
        "continuationYears": 3
      }
    },
    {
      "type": "Feature",
      "geometry": {
        "type": "Point",
        "coordinates": [
          141.3419117,
          43.0905809
        ]
      },
      "properties": {
        "name": "札幌サンプラザ",
        "category": "観光",
        "region": "道央",
        "rank": "ブロンズ",
        "work": "ホテル業",
        "postalCode": "001-0024",
        "address": "札幌市北区北24条西5丁目1-1",
        "phoneNumber": "011-717-2711",
        "url": "http://www.s-sunplaza.or.jp",
        "benefit": "",
        "comment": "",
        "continuationYears": 8
      }
    },
    {
      "type": "Feature",
      "geometry": {
        "type": "Point",
        "coordinates": [
          130.7820259,
          32.8406007
        ]
      },
      "properties": {
        "name": "火の国ハイツ",
        "category": "観光",
        "region": "道外",
        "rank": "シルバー",
        "work": "旅館ホテル業",
        "postalCode": "",
        "address": "861-8046　熊本市東区石原2丁目2番28号",
        "phoneNumber": "096-380-3305",
        "url": "http://www.hinokuni.com",
        "benefit": "",
        "comment": "",
        "continuationYears": 7
      }
    },
    {
      "type": "Feature",
      "geometry": {
        "type": "Point",
        "coordinates": [
          140.9944467,
          43.2187586
        ]
      },
      "properties": {
        "name": "旅人・宿　Ｂ＆Ｂ　いちえ",
        "category": "観光",
        "region": "道央",
        "rank": "ブロンズ",
        "work": "ドミトリー式民宿",
        "postalCode": "047-0046",
        "address": "小樽市赤岩1-1-19",
        "phoneNumber": "0134-33-6481",
        "url": "http://www.ryokuyo.com/ichie/",
        "benefit": "サッポロクラシック350ｍｌ缶　1本サービス",
        "comment": "2019ルヴァン杯決勝進出～2020更に進もう！",
        "continuationYears": 7
      }
    },
    {
      "type": "Feature",
      "geometry": {
        "type": "Point",
        "coordinates": [
          141.3232096,
          43.0673184
        ]
      },
      "properties": {
        "name": "拓北電業株式会社",
        "category": "建設関係",
        "region": "道央",
        "rank": "シルバー",
        "work": "電気工事業",
        "postalCode": "060-0008",
        "address": "札幌市中央区北8条西20丁目2-10",
        "phoneNumber": "011-644-4151",
        "url": "http://www.takuhoku.co.jp",
        "benefit": "",
        "comment": "",
        "continuationYears": 4
      }
    },
    {
      "type": "Feature",
      "geometry": {
        "type": "Point",
        "coordinates": [
          141.025794,
          42.35102699999999
        ]
      },
      "properties": {
        "name": "土地家屋調査士　内田秀昭事務所",
        "category": "法律関係",
        "region": "道南",
        "rank": "ブロンズ",
        "work": "土地家屋調査",
        "postalCode": "050-0074",
        "address": "室蘭市中島町3丁目40-13 第一大内ビル3F",
        "phoneNumber": "0143-47-9045",
        "url": "",
        "benefit": "",
        "comment": "不動産の表題部登記の専門家です。測量もします。",
        "continuationYears": 3
      }
    },
    {
      "type": "Feature",
      "geometry": {
        "type": "Point",
        "coordinates": [
          143.9286607,
          43.8415031
        ]
      },
      "properties": {
        "name": "ハートフルツアー・東北海道トラベル",
        "category": "観光",
        "region": "道東",
        "rank": "シルバー",
        "work": "旅行業",
        "postalCode": "099-2103",
        "address": "北見市端野町三区572番地１",
        "phoneNumber": "0157-56-4110",
        "url": "http://www.higashihokkaido.com",
        "benefit": "じもってぃー温泉宿泊プラン５％OFF",
        "comment": "",
        "continuationYears": 6
      }
    },
    {
      "type": "Feature",
      "geometry": {
        "type": "Point",
        "coordinates": [
          141.3523561,
          43.06262419999999
        ]
      },
      "properties": {
        "name": "株式会社　ソフトコム",
        "category": "その他",
        "region": "道央",
        "rank": "ブロンズ",
        "work": "ソフトウェア開発",
        "postalCode": "060-0001",
        "address": "札幌市中央区北1条西3丁目3番地 敷島北一条ビル9階",
        "phoneNumber": "011-219-1313",
        "url": "",
        "benefit": "",
        "comment": "Ｊ１優勝目指して頑張れ！！",
        "continuationYears": 21
      }
    },
    {
      "type": "Feature",
      "geometry": {
        "type": "Point",
        "coordinates": [
          142.373367,
          43.8022956
        ]
      },
      "properties": {
        "name": "杉山軍手株式会社",
        "category": "卸売・小売",
        "region": "道北",
        "rank": "ブロンズ",
        "work": "作業手袋卸売",
        "postalCode": "070-0873",
        "address": "旭川市春光3条8丁目2-1",
        "phoneNumber": "0166-51-8087",
        "url": "",
        "benefit": "初回御注文分10%割引",
        "comment": "作業手袋皆様の安全作業祈念して",
        "continuationYears": 20
      }
    },
    {
      "type": "Feature",
      "geometry": {
        "type": "Point",
        "coordinates": [
          142.0213142,
          43.7129596
        ]
      },
      "properties": {
        "name": "有限会社 リバー産業",
        "category": "卸売・小売",
        "region": "道北",
        "rank": "ブロンズ",
        "work": "卸売・小売",
        "postalCode": "074-0013",
        "address": "深川市文光町8-30",
        "phoneNumber": "0164-26-8668",
        "url": "http://www.river2000.com",
        "benefit": "当社商品10％OFF",
        "comment": "地域の環境保護・保全はバイオ製剤で",
        "continuationYears": 19
      }
    },
    {
      "type": "Feature",
      "geometry": {
        "type": "Point",
        "coordinates": [
          141.4799153,
          42.9582796
        ]
      },
      "properties": {
        "name": "MPアグロ株式会社",
        "category": "卸売・小売",
        "region": "道央",
        "rank": "ブロンズ",
        "work": "動物薬卸売業",
        "postalCode": "061-1274",
        "address": "北広島市大曲工業団地6丁目2-13",
        "phoneNumber": "011-376-3860",
        "url": "http://www.mpagro.co.jp/",
        "benefit": "",
        "comment": "",
        "continuationYears": 18
      }
    },
    {
      "type": "Feature",
      "geometry": {
        "type": "Point",
        "coordinates": [
          141.567489,
          43.11099300000001
        ]
      },
      "properties": {
        "name": "株式会社　パル・コーポレーション",
        "category": "卸売・小売",
        "region": "道央",
        "rank": "ブロンズ",
        "work": "徽章卸売業",
        "postalCode": "067-0023",
        "address": "江別市東光町33-4",
        "phoneNumber": "011-383-3116",
        "url": "http://www.palcorp.co.jp",
        "benefit": "",
        "comment": "江別市より応援しています！",
        "continuationYears": 12
      }
    },
    {
      "type": "Feature",
      "geometry": {
        "type": "Point",
        "coordinates": [
          141.7256803,
          43.1411826
        ]
      },
      "properties": {
        "name": "株式会社　ありんこ舎",
        "category": "その他",
        "region": "道央",
        "rank": "ブロンズ",
        "work": "福祉機器等製作・販売",
        "postalCode": "068-0103",
        "address": "岩見沢市栗沢町砺波24-6",
        "phoneNumber": "0126-45-4504",
        "url": "",
        "benefit": "",
        "comment": "車椅子等の福祉機器全般及び木製椅子等の家具製作・販売致します。",
        "continuationYears": 17
      }
    },
    {
      "type": "Feature",
      "geometry": {
        "type": "Point",
        "coordinates": [
          141.3999425,
          43.165769
        ]
      },
      "properties": {
        "name": "てっちゃん福祉タクシー",
        "category": "その他",
        "region": "道央",
        "rank": "ブロンズ",
        "work": "介護福祉タクシー",
        "postalCode": "002-8074",
        "address": "札幌市北区あいの里4条5丁目24-30",
        "phoneNumber": "011-790-8487",
        "url": "http://tecchan-ft.com/",
        "benefit": "ｺﾝｻ公式戦ご利用時、観戦ﾁｹｯﾄ千円分・会場駐車場代・送迎時高速道路料、当社持ち！付添介助料無料！",
        "comment": "車いすやストレッチャーごとご乗車できます。",
        "continuationYears": 12
      }
    },
    {
      "type": "Feature",
      "geometry": {
        "type": "Point",
        "coordinates": [
          141.5267052,
          43.0992099
        ]
      },
      "properties": {
        "name": "有限会社　フレックス",
        "category": "その他",
        "region": "道央",
        "rank": "ブロンズ",
        "work": "製造業(ステッカー・看板等)",
        "postalCode": "069-0817",
        "address": "江別市野幌代々木町40-2",
        "phoneNumber": "011-385-4675",
        "url": "http://www.flex-akabo.co.jp/",
        "benefit": "3000円以上のご注文で10％OFF",
        "comment": "オリジナルのステッカー・看板・表札・アイロンプリント等の制作をしています。赤黒での制作大歓迎です！",
        "continuationYears": 9
      }
    },
    {
      "type": "Feature",
      "geometry": {
        "type": "Point",
        "coordinates": [
          141.3675911,
          43.0496486
        ]
      },
      "properties": {
        "name": "株式会社　特殊印刷",
        "category": "その他",
        "region": "道央",
        "rank": "ブロンズ",
        "work": "印刷業",
        "postalCode": "062-0906",
        "address": "札幌市豊平区豊平6条3丁目4番25号",
        "phoneNumber": "011-811-1735",
        "url": "http://www.tokuin.co.jp",
        "benefit": "",
        "comment": "当社はスクリーン印刷・ラミネート加工・サイン工事をおこなっている豊平区の会社です。今年もがんばれコンサドーレ！",
        "continuationYears": 8
      }
    },
    {
      "type": "Feature",
      "geometry": {
        "type": "Point",
        "coordinates": [
          143.8955878,
          43.8040047
        ]
      },
      "properties": {
        "name": "コスメティックRAPTY",
        "category": "卸売・小売",
        "region": "道北",
        "rank": "ブロンズ",
        "work": "化粧品販売",
        "postalCode": "090-0040",
        "address": "北見市大通西２丁目1 コミュニティープラザ パラボ１階",
        "phoneNumber": "0157-23-6824",
        "url": "",
        "benefit": "",
        "comment": "",
        "continuationYears": 8
      }
    },
    {
      "type": "Feature",
      "geometry": {
        "type": "Point",
        "coordinates": [
          141.3456489,
          43.0588895
        ]
      },
      "properties": {
        "name": "株式会社 エコミック",
        "category": "その他",
        "region": "道央",
        "rank": "ブロンズ",
        "work": "情報通信",
        "postalCode": "060-0042",
        "address": "札幌市中央区大通西8丁目1-1 朝日生命札幌大通ビル",
        "phoneNumber": "011-206-1945",
        "url": "http://www.ecomic.jp/",
        "benefit": "",
        "comment": "給与計算アウトソーシングのエコミック～人的業務をすべて受託し、お客様のコスト削減を実現します～",
        "continuationYears": 8
      }
    },
    {
      "type": "Feature",
      "geometry": {
        "type": "Point",
        "coordinates": [
          141.3715999,
          43.0673416
        ]
      },
      "properties": {
        "name": "眞照寺",
        "category": "その他",
        "region": "道央",
        "rank": "ブロンズ",
        "work": "寺院",
        "postalCode": "060-0033",
        "address": "札幌市中央区北3条東10丁目18",
        "phoneNumber": "011-241-6832",
        "url": "",
        "benefit": "",
        "comment": "",
        "continuationYears": 8
      }
    },
    {
      "type": "Feature",
      "geometry": {
        "type": "Point",
        "coordinates": [
          141.3580679,
          43.0635972
        ]
      },
      "properties": {
        "name": "公益財団法人 札幌市公園緑化協会",
        "category": "その他",
        "region": "道央",
        "rank": "ブロンズ",
        "work": "その他サービス",
        "postalCode": "060-0031",
        "address": "札幌市中央区北1条東1丁目6番地16 ニューワンビル4F",
        "phoneNumber": "011-211-2579",
        "url": "http://www.sapporo-park.or.jp/",
        "benefit": "",
        "comment": "",
        "continuationYears": 8
      }
    },
    {
      "type": "Feature",
      "geometry": null,
      "properties": {
        "name": "yorokinoko",
        "category": "その他",
        "region": "道央",
        "rank": "プラチナ",
        "work": "個人",
        "postalCode": "",
        "address": "",
        "phoneNumber": "",
        "url": "http://yorokinoko2.blog.so-net.ne.jp/",
        "benefit": "",
        "comment": "「J１上位定着」に向け、応援します。北海道コンサドーレ札幌",
        "continuationYears": 7
      }
    },
    {
      "type": "Feature",
      "geometry": {
        "type": "Point",
        "coordinates": [
          142.3550952,
          43.7873824
        ]
      },
      "properties": {
        "name": "あさひかわ　アルファ",
        "category": "その他",
        "region": "道北",
        "rank": "ゴールド",
        "work": "アミューズメント運営",
        "postalCode": "070-0832",
        "address": "旭川市旭町2条7丁目12-77",
        "phoneNumber": "0166-51-2151",
        "url": "http://www.yamamotobuild.co.jp/",
        "benefit": "",
        "comment": "「あさひかわアルファ」は北海道コンサドーレ札幌を応援します。",
        "continuationYears": 6
      }
    },
    {
      "type": "Feature",
      "geometry": {
        "type": "Point",
        "coordinates": [
          141.4162783,
          43.0153039
        ]
      },
      "properties": {
        "name": "尼髙運輸株式会社　札幌営業所",
        "category": "その他",
        "region": "道央",
        "rank": "シルバー",
        "work": "運送業",
        "postalCode": "062-0051",
        "address": "札幌市豊平区月寒東1条18丁目2番1号",
        "phoneNumber": "011-836-8501",
        "url": "http://www.amako.co.jp",
        "benefit": "",
        "comment": "札幌ドームでの試合開催時は、有料駐車場貸しを行っております。",
        "continuationYears": 8
      }
    },
    {
      "type": "Feature",
      "geometry": {
        "type": "Point",
        "coordinates": [
          141.2760508,
          43.0876837
        ]
      },
      "properties": {
        "name": "西のコンサ通り商店会",
        "category": "その他",
        "region": "道央",
        "rank": "ブロンズ",
        "work": "地域商店会",
        "postalCode": "063-0061",
        "address": "札幌市西区西町北20丁目2-20",
        "phoneNumber": "090-8705-9759",
        "url": "",
        "benefit": "",
        "comment": "",
        "continuationYears": 6
      }
    },
    {
      "type": "Feature",
      "geometry": {
        "type": "Point",
        "coordinates": [
          141.2143528,
          43.1340768
        ]
      },
      "properties": {
        "name": "藤上",
        "category": "その他",
        "region": "道央",
        "rank": "ブロンズ",
        "work": "その他",
        "postalCode": "006-0851",
        "address": "札幌市手稲区星置一条1丁目18-1",
        "phoneNumber": "090-2871-3583",
        "url": "",
        "benefit": "",
        "comment": "北海道コンサドーレ札幌とともに、未来の北海道へ",
        "continuationYears": 5
      }
    },
    {
      "type": "Feature",
      "geometry": {
        "type": "Point",
        "coordinates": [
          141.3980145,
          43.0533236
        ]
      },
      "properties": {
        "name": "株式会社　エイチ･アール･オー",
        "category": "その他",
        "region": "道央",
        "rank": "ブロンズ",
        "work": "土木資材販売",
        "postalCode": "003-0011",
        "address": "札幌市白石区中央1条5丁目8-2",
        "phoneNumber": "011-821-5868",
        "url": "",
        "benefit": "",
        "comment": "",
        "continuationYears": 22
      }
    },
    {
      "type": "Feature",
      "geometry": {
        "type": "Point",
        "coordinates": [
          141.3265248,
          43.16762019999999
        ]
      },
      "properties": {
        "name": "株式会社　コンフォート",
        "category": "その他",
        "region": "道央",
        "rank": "プラチナ",
        "work": "電気工事業",
        "postalCode": "061-3216",
        "address": "石狩市花川北6条5丁目182-1",
        "phoneNumber": "0133-74-2198",
        "url": "",
        "benefit": "",
        "comment": "快適空間の創造からサービスまでをサポート",
        "continuationYears": 22
      }
    },
    {
      "type": "Feature",
      "geometry": {
        "type": "Point",
        "coordinates": [
          139.8024544,
          35.763934
        ]
      },
      "properties": {
        "name": "株式会社　ほむぺじ",
        "category": "その他",
        "region": "道央",
        "rank": "ブロンズ",
        "work": "ホームページ製作",
        "postalCode": "",
        "address": "123-0851　東京都足立区梅田1丁目9-12",
        "phoneNumber": "03-5941-9108",
        "url": "http://homupeji.jp",
        "benefit": "",
        "comment": "今年も全力で応援します！",
        "continuationYears": 4
      }
    },
    {
      "type": "Feature",
      "geometry": {
        "type": "Point",
        "coordinates": [
          141.492749,
          42.9975285
        ]
      },
      "properties": {
        "name": "川原クレーン　株式会社",
        "category": "その他",
        "region": "道央",
        "rank": "ブロンズ",
        "work": "クレーンリース業",
        "postalCode": "061-1270",
        "address": "北広島市大曲646-73",
        "phoneNumber": "011-376-3750",
        "url": "http://www.kawahara-crane.com/",
        "benefit": "",
        "comment": "",
        "continuationYears": 5
      }
    },
    {
      "type": "Feature",
      "geometry": {
        "type": "Point",
        "coordinates": [
          141.4315637,
          43.0690474
        ]
      },
      "properties": {
        "name": "有限会社　ひがしリサイクルサービス",
        "category": "その他",
        "region": "道央",
        "rank": "ブロンズ",
        "work": "資源回収業",
        "postalCode": "003-0849",
        "address": "札幌市白石区北郷2357番地",
        "phoneNumber": "011-873-7770",
        "url": "http://www.higashi-recycle.co.jp/",
        "benefit": "",
        "comment": "",
        "continuationYears": 18
      }
    },
    {
      "type": "Feature",
      "geometry": {
        "type": "Point",
        "coordinates": [
          141.3144391,
          43.121418
        ]
      },
      "properties": {
        "name": "株式会社　渡商",
        "category": "卸売・小売",
        "region": "道央",
        "rank": "ブロンズ",
        "work": "機械工具・事務機器・製作卸",
        "postalCode": "001-0907",
        "address": "札幌市北区新琴似7条13丁目5番13号",
        "phoneNumber": "011-762-2231",
        "url": "http://watasho.co.jp",
        "benefit": "",
        "comment": "",
        "continuationYears": 11
      }
    },
    {
      "type": "Feature",
      "geometry": {
        "type": "Point",
        "coordinates": [
          141.3726332,
          43.07438399999999
        ]
      },
      "properties": {
        "name": "株式会社　大成建機",
        "category": "建設関係",
        "region": "道央",
        "rank": "ゴールド",
        "work": "建設機械レンタル業",
        "postalCode": "065-0008",
        "address": "札幌市東区北8条東12丁目4-12",
        "phoneNumber": "011-741-5571",
        "url": "http://www.taiseikenki.co.jp/",
        "benefit": "",
        "comment": "",
        "continuationYears": 9
      }
    },
    {
      "type": "Feature",
      "geometry": {
        "type": "Point",
        "coordinates": [
          140.9864974,
          43.1832527
        ]
      },
      "properties": {
        "name": "菜はな",
        "category": "飲料・食品",
        "region": "道央",
        "rank": "ブロンズ",
        "work": "飲食業",
        "postalCode": "047-0023",
        "address": "小樽市最上1-3-13",
        "phoneNumber": "0134-24-1713",
        "url": "https://www.cafenahana.com/",
        "benefit": "",
        "comment": "赤ちゃんからご年配の方までゆっくりとお寛ぎ頂ける、道産食材を中心に手作りのお食事メニューが人気の古民家カフェです。",
        "continuationYears": 2
      }
    },
    {
      "type": "Feature",
      "geometry": {
        "type": "Point",
        "coordinates": [
          141.3577272,
          43.0565131
        ]
      },
      "properties": {
        "name": "なかよし餃子　エリザベス",
        "category": "飲料・食品",
        "region": "道央",
        "rank": "ブロンズ",
        "work": "デザイン業・飲食業",
        "postalCode": "064-0804",
        "address": "札幌市中央区南4条西1丁目15-2",
        "phoneNumber": "011-522-5340",
        "url": "http://elizabethgyoza.com/",
        "benefit": "会員カード持参でドリンク1本無料",
        "comment": "ドームから東豊線1本で来れます。餃子とクラシックで勝利を祝おう！",
        "continuationYears": 2
      }
    },
    {
      "type": "Feature",
      "geometry": {
        "type": "Point",
        "coordinates": [
          141.3544597,
          43.0543832
        ]
      },
      "properties": {
        "name": "キングスター",
        "category": "飲料・食品",
        "region": "道央",
        "rank": "ブロンズ",
        "work": "スポーツバー",
        "postalCode": "064-0805",
        "address": "札幌市中央区南5条西3丁目",
        "phoneNumber": "011-596-0595",
        "url": "http://www.king-star.jp",
        "benefit": "おつまみ１品サービス",
        "comment": "キングガールと一緒にスポーツ観戦しよう！",
        "continuationYears": 5
      }
    },
    {
      "type": "Feature",
      "geometry": {
        "type": "Point",
        "coordinates": [
          141.239662,
          43.1206121
        ]
      },
      "properties": {
        "name": "ちょい寝ホテル札幌手稲",
        "category": "その他",
        "region": "道央",
        "rank": "ブロンズ",
        "work": "ホテル業",
        "postalCode": "006-0022",
        "address": "札幌市手稲区手稲本町2条5丁目12-56-803",
        "phoneNumber": "011-688-8707",
        "url": "https://www.choinehotels.com/",
        "benefit": "",
        "comment": "今年、宮の沢に一番近い宿が手稲富丘に新築オープン！宿泊費激安！駐車場完備！ちょい寝で一泊ドーム直行！",
        "continuationYears": 2
      }
    },
    {
      "type": "Feature",
      "geometry": {
        "type": "Point",
        "coordinates": [
          141.3587824,
          43.0640047
        ]
      },
      "properties": {
        "name": "株式会社　クリエイティブ・コンサルタント",
        "category": "その他",
        "region": "道央",
        "rank": "ゴールド",
        "work": "システム開発",
        "postalCode": "060-0031",
        "address": "札幌市中央区北1条東2丁目5番地3",
        "phoneNumber": "011-210-7130",
        "url": "https://www.hokkaido-ima.co.jp/",
        "benefit": "",
        "comment": "株式会社クリエイティブ・コンサルタントは北海道プロスポーツを応援しています！",
        "continuationYears": 2
      }
    },
    {
      "type": "Feature",
      "geometry": {
        "type": "Point",
        "coordinates": [
          141.6327694,
          42.8472651
        ]
      },
      "properties": {
        "name": "蕎麦CAFÉ森の傍",
        "category": "飲料・食品",
        "region": "道央",
        "rank": "ブロンズ",
        "work": "飲食店",
        "postalCode": "066-0033",
        "address": "千歳市北光6丁目10-7",
        "phoneNumber": "0123-21-8675",
        "url": "",
        "benefit": "クラブコンサドーレ会員の方は食後のコーヒーをサービスいたします。",
        "comment": "千歳の森の傍らでコンサドーレを応援しています。",
        "continuationYears": 2
      }
    },
    {
      "type": "Feature",
      "geometry": {
        "type": "Point",
        "coordinates": [
          141.358866,
          43.0561216
        ]
      },
      "properties": {
        "name": "ワインと欧風料理　おかげさまで",
        "category": "飲料・食品",
        "region": "道央",
        "rank": "ブロンズ",
        "work": "飲食業",
        "postalCode": "060-0055",
        "address": "札幌市中央区南5条東1丁目11",
        "phoneNumber": "011-521-2606",
        "url": "http://okagesamade-winebar.com/",
        "benefit": "",
        "comment": "ワインと料理をお楽しみいただきながら、スポーツ観戦できます。",
        "continuationYears": 2
      }
    },
    {
      "type": "Feature",
      "geometry": {
        "type": "Point",
        "coordinates": [
          141.6765791,
          42.8207809
        ]
      },
      "properties": {
        "name": "株式会社　トラストワーク",
        "category": "その他",
        "region": "道央",
        "rank": "ブロンズ",
        "work": "運送業",
        "postalCode": "066-0019",
        "address": "千歳市流通1丁目4-9",
        "phoneNumber": "0123-40-7907",
        "url": "",
        "benefit": "",
        "comment": "株式会社トラストワークは北海道コンサドーレ札幌を応援します",
        "continuationYears": 2
      }
    },
    {
      "type": "Feature",
      "geometry": {
        "type": "Point",
        "coordinates": [
          141.3278954,
          43.0585881
        ]
      },
      "properties": {
        "name": "司法書士行政書士　小松洋輔事務所",
        "category": "法律関係",
        "region": "道央",
        "rank": "ブロンズ",
        "work": "司法書士・行政書士",
        "postalCode": "060-0001",
        "address": "札幌市中央区北1条西19丁目1-7",
        "phoneNumber": "011-213-9888",
        "url": "https://www.km2office.com/",
        "benefit": "初回相談料　無料です。",
        "comment": "ルヴァンカップ決勝戦のゴール裏から持ち帰った赤黒の神テープ、今年はなげられますように！",
        "continuationYears": 2
      }
    },
    {
      "type": "Feature",
      "geometry": {
        "type": "Point",
        "coordinates": [
          141.3636774,
          43.0628434
        ]
      },
      "properties": {
        "name": "株式会社丸富　富田商会",
        "category": "その他",
        "region": "道央",
        "rank": "ブロンズ",
        "work": "ノベルティの企画・制作",
        "postalCode": "060-0041",
        "address": "札幌市中央区大通東5丁目４富田ビル",
        "phoneNumber": "011-231-4824",
        "url": "https://www.tomita-sp.co.jp/",
        "benefit": "",
        "comment": "大正14年創業のノベルティ制作会社です。ギフト品や北海道グルメのWEBサイトぎふプロも運営しています。",
        "continuationYears": 2
      }
    },
    {
      "type": "Feature",
      "geometry": {
        "type": "Point",
        "coordinates": [
          139.6230503,
          35.7072372
        ]
      },
      "properties": {
        "name": "ＴＯＫＹＯ ＳＰｉＣＥ ＣＵＲＲＹ　赤と黒",
        "category": "飲料・食品",
        "region": "道外",
        "rank": "ブロンズ",
        "work": "飲食業",
        "postalCode": "167-0032",
        "address": "東京都杉並区天沼3-31-34",
        "phoneNumber": "03-5335-7633",
        "url": "",
        "benefit": "「２点以上の勝利」で翌日１週間、「コンサドーレ」の合言葉でサッポロ生ビール１杯サービス",
        "comment": "赤カレーと黒カレーが名物！！ビールはサッポロ生",
        "continuationYears": 2
      }
    },
    {
      "type": "Feature",
      "geometry": {
        "type": "Point",
        "coordinates": [
          144.3999857,
          43.0096399
        ]
      },
      "properties": {
        "name": "株式会社中嶋木材",
        "category": "卸売・小売",
        "region": "道東",
        "rank": "ブロンズ",
        "work": "建築資材卸小売業",
        "postalCode": "088-0626",
        "address": "北海道釧路郡釧路町桂5丁目9番地8",
        "phoneNumber": "0154-36-1967",
        "url": "",
        "benefit": "",
        "comment": "",
        "continuationYears": 2
      }
    },
    {
      "type": "Feature",
      "geometry": {
        "type": "Point",
        "coordinates": [
          141.3140784,
          43.1347658
        ]
      },
      "properties": {
        "name": "株式会社　北海道メディカルイメージング",
        "category": "その他",
        "region": "道央",
        "rank": "ゴールド",
        "work": "医療機器販売",
        "postalCode": "002-0855",
        "address": "北海道札幌市北区屯田5条12丁目6-15",
        "phoneNumber": "011-771-7271",
        "url": "http://medical-imaging.jp",
        "benefit": "",
        "comment": "本年も北海道メディカルイメージングは北海道コンサドーレ札幌を応援します！！",
        "continuationYears": 2
      }
    },
    {
      "type": "Feature",
      "geometry": {
        "type": "Point",
        "coordinates": [
          141.3978151,
          43.02857030000001
        ]
      },
      "properties": {
        "name": "焼肉 くう蔵",
        "category": "飲料・食品",
        "region": "道央",
        "rank": "ブロンズ",
        "work": "飲食店",
        "postalCode": "062-0020",
        "address": "札幌市豊平区月寒中央通8丁目3-25",
        "phoneNumber": "011-856-2929",
        "url": "http://www.rally.co.jp/kuuzou/",
        "benefit": "会員カード提示でファーストドリンクサービス",
        "comment": "お客様の「今日もたくさん食うぞ～」が聞きたいから…",
        "continuationYears": 13
      }
    },
    {
      "type": "Feature",
      "geometry": {
        "type": "Point",
        "coordinates": [
          139.575329,
          35.7384011
        ]
      },
      "properties": {
        "name": "アイエフコンフィグ株式会社",
        "category": "その他",
        "region": "道外",
        "rank": "ブロンズ",
        "work": "ＩＴ",
        "postalCode": "",
        "address": "東京都練馬区南大泉1丁目14-22",
        "phoneNumber": "03-6764-0016",
        "url": "",
        "benefit": "",
        "comment": "",
        "continuationYears": 10
      }
    },
    {
      "type": "Feature",
      "geometry": {
        "type": "Point",
        "coordinates": [
          144.38729,
          42.9825414
        ]
      },
      "properties": {
        "name": "旬鮮炉ばた　もりや",
        "category": "飲料・食品",
        "region": "道東",
        "rank": "ブロンズ",
        "work": "飲食業",
        "postalCode": "085-0014",
        "address": "釧路市末広２丁目 ホテルパコ１Ｆ",
        "phoneNumber": "0154-32-0012",
        "url": "",
        "benefit": "",
        "comment": "",
        "continuationYears": 4
      }
    },
    {
      "type": "Feature",
      "geometry": {
        "type": "Point",
        "coordinates": [
          143.3785034,
          44.32194980000001
        ]
      },
      "properties": {
        "name": "北海道コンサドーレ札幌　紋別後援会",
        "category": "その他",
        "region": "道東",
        "rank": "ブロンズ",
        "work": "後援会",
        "postalCode": "094-0023",
        "address": "紋別市元紋別678番地",
        "phoneNumber": "0158-24-2165",
        "url": "",
        "benefit": "",
        "comment": "流氷の街オホーツク紋別からコンサドーレを応援します！",
        "continuationYears": 2
      }
    },
    {
      "type": "Feature",
      "geometry": {
        "type": "Point",
        "coordinates": [
          141.4240007,
          43.0928394
        ]
      },
      "properties": {
        "name": "有限会社　道北トロフィー商会",
        "category": "その他",
        "region": "道央",
        "rank": "シルバー",
        "work": "別注製品企画制作",
        "postalCode": "007-0828",
        "address": "札幌市東区東雁来8条2丁目6番1号",
        "phoneNumber": "011-787-3133",
        "url": "http://www.d-trophy.co.jp",
        "benefit": "",
        "comment": "",
        "continuationYears": 7
      }
    },
    {
      "type": "Feature",
      "geometry": {
        "type": "Point",
        "coordinates": [
          141.2773274,
          43.0851626
        ]
      },
      "properties": {
        "name": "岩橋印刷株式会社",
        "category": "その他",
        "region": "道央",
        "rank": "ブロンズ",
        "work": "印刷業",
        "postalCode": "063-8580",
        "address": "札幌市西区西町南18丁目1-34",
        "phoneNumber": "011-669-2510",
        "url": "http://www.iwahashi-printing.co.jp/",
        "benefit": "",
        "comment": "",
        "continuationYears": 14
      }
    },
    {
      "type": "Feature",
      "geometry": {
        "type": "Point",
        "coordinates": [
          141.4715845,
          43.0381825
        ]
      },
      "properties": {
        "name": "３１０（サンイチマル）",
        "category": "卸売・小売",
        "region": "道央",
        "rank": "ブロンズ",
        "work": "婦人服卸売・小売",
        "postalCode": "004-0052",
        "address": "札幌市厚別区中央2条5丁目7 イオンカテプリ新さっぽろ２F",
        "phoneNumber": "011-807-9310",
        "url": "",
        "benefit": "イオンカテプリ新さっぽろ２F３１０（サンイチマル）にて10％OFF！",
        "comment": "",
        "continuationYears": 2
      }
    },
    {
      "type": "Feature",
      "geometry": {
        "type": "Point",
        "coordinates": [
          141.3020255,
          43.07582319999999
        ]
      },
      "properties": {
        "name": "株式会社　ことに大和家",
        "category": "飲料・食品",
        "region": "道央",
        "rank": "シルバー",
        "work": "飲食業",
        "postalCode": "063-0812",
        "address": "札幌市西区琴似2条5丁目2-24",
        "phoneNumber": "011-621-8108",
        "url": "http://kotoni-yamatoya.jp/",
        "benefit": "",
        "comment": "",
        "continuationYears": 7
      }
    },
    {
      "type": "Feature",
      "geometry": {
        "type": "Point",
        "coordinates": [
          141.3396806,
          43.0473047
        ]
      },
      "properties": {
        "name": "株式会社　ホクラミ",
        "category": "その他",
        "region": "道央",
        "rank": "ブロンズ",
        "work": "印刷・ラミネート加工",
        "postalCode": "064-0809",
        "address": "札幌市中央区南9条西12丁目2-30",
        "phoneNumber": "011-512-3378",
        "url": "",
        "benefit": "",
        "comment": "",
        "continuationYears": 4
      }
    },
    {
      "type": "Feature",
      "geometry": {
        "type": "Point",
        "coordinates": [
          141.3698469,
          43.1191201
        ]
      },
      "properties": {
        "name": "株式会社Violet Factory",
        "category": "飲料・食品",
        "region": "道央",
        "rank": "シルバー",
        "work": "送迎委託業・キッチンカー移動販売業",
        "postalCode": "007-0846",
        "address": "札幌市東区北46条東18丁目3-10",
        "phoneNumber": "011-788-4564",
        "url": "",
        "benefit": "",
        "comment": "",
        "continuationYears": 5
      }
    },
    {
      "type": "Feature",
      "geometry": {
        "type": "Point",
        "coordinates": [
          141.3326352,
          43.0578623
        ]
      },
      "properties": {
        "name": "北海道オフィス･マシン株式会社",
        "category": "卸売・小売",
        "region": "道央",
        "rank": "シルバー",
        "work": "事務機器設置・販売",
        "postalCode": "060-0042",
        "address": "札幌市中央区大通西16丁目3番地",
        "phoneNumber": "011-632-5000",
        "url": "http://www.hom.co.jp",
        "benefit": "",
        "comment": "",
        "continuationYears": 8
      }
    },
    {
      "type": "Feature",
      "geometry": {
        "type": "Point",
        "coordinates": [
          141.3541917,
          43.056664
        ]
      },
      "properties": {
        "name": "魚桜　咲",
        "category": "飲料・食品",
        "region": "道央",
        "rank": "ブロンズ",
        "work": "飲食業（居酒屋）",
        "postalCode": "060-0063",
        "address": "札幌市中央区南3条西3丁目3",
        "phoneNumber": "011-219-8338",
        "url": "https://www.hotpepper.jp/strJ001028447/",
        "benefit": "",
        "comment": "北海道食材をメインに和洋食をご用意。大型スクリーン完備でスポーツ観戦も可。",
        "continuationYears": 9
      }
    },
    {
      "type": "Feature",
      "geometry": {
        "type": "Point",
        "coordinates": [
          141.3475396,
          43.0312854
        ]
      },
      "properties": {
        "name": "医療法人社団　土田病院",
        "category": "病院・医療",
        "region": "道央",
        "rank": "ゴールド",
        "work": "病院",
        "postalCode": "064-0921",
        "address": "札幌市中央区南21条西9丁目2-11",
        "phoneNumber": "011-531-7013",
        "url": "http://www.tsuchida.or.jp",
        "benefit": "",
        "comment": "FIFAクラブワールドカップ優勝までサポートを続けます！",
        "continuationYears": 2
      }
    },
    {
      "type": "Feature",
      "geometry": {
        "type": "Point",
        "coordinates": [
          144.9826046,
          43.5539754
        ]
      },
      "properties": {
        "name": "有限会社　タケウチ商会",
        "category": "卸売・小売",
        "region": "道東",
        "rank": "ブロンズ",
        "work": "金物・厨房用品販売",
        "postalCode": "086-1050",
        "address": "標津郡中標津町東10条北1丁目2番地",
        "phoneNumber": "0153-72-2143",
        "url": "",
        "benefit": "",
        "comment": "",
        "continuationYears": 7
      }
    },
    {
      "type": "Feature",
      "geometry": {
        "type": "Point",
        "coordinates": [
          141.261826,
          43.085546
        ]
      },
      "properties": {
        "name": "株式会社　アレグリア",
        "category": "建設関係",
        "region": "道央",
        "rank": "ブロンズ",
        "work": "建設業",
        "postalCode": "063-0054",
        "address": "札幌市西区宮の沢4条3丁目20-1",
        "phoneNumber": "011-211-0200",
        "url": "",
        "benefit": "",
        "comment": "",
        "continuationYears": 2
      }
    },
    {
      "type": "Feature",
      "geometry": {
        "type": "Point",
        "coordinates": [
          141.3370632,
          43.0615811
        ]
      },
      "properties": {
        "name": "鳥海謙一税理士事務所",
        "category": "法律関係",
        "region": "道央",
        "rank": "ブロンズ",
        "work": "税理士",
        "postalCode": "060-0002",
        "address": "札幌市中央区北2条西13丁目1-1KZビル３F",
        "phoneNumber": "011-261-5688",
        "url": "",
        "benefit": "",
        "comment": "Go to next stage",
        "continuationYears": 1
      }
    },
    {
      "type": "Feature",
      "geometry": {
        "type": "Point",
        "coordinates": [
          139.7037919,
          35.7108133
        ]
      },
      "properties": {
        "name": "横浜ボンベイ高田馬場店",
        "category": "飲料・食品",
        "region": "道外",
        "rank": "ブロンズ",
        "work": "飲食店",
        "postalCode": "169-0075",
        "address": "東京都新宿区高田馬場1-32-11",
        "phoneNumber": "03-6205-6657",
        "url": "",
        "benefit": "会員証提示でトッピング（100円）ｏｒライス大盛りサービス",
        "comment": "赤と黒の系列店舗です。地名の大渋滞です。。。",
        "continuationYears": 1
      }
    },
    {
      "type": "Feature",
      "geometry": {
        "type": "Point",
        "coordinates": [
          141.3481907,
          43.05466029999999
        ]
      },
      "properties": {
        "name": "ＴＫ３６",
        "category": "飲料・食品",
        "region": "道央",
        "rank": "ブロンズ",
        "work": "飲食店",
        "postalCode": "064-0804",
        "address": "札幌市中央区南4条西2丁目ホシビル１F",
        "phoneNumber": "011-212-1836",
        "url": "http://www.tk6.jp",
        "benefit": "",
        "comment": "Sapporo's Favourite International Bar & Grill",
        "continuationYears": 1
      }
    },
    {
      "type": "Feature",
      "geometry": {
        "type": "Point",
        "coordinates": [
          141.3518689,
          43.0628574
        ]
      },
      "properties": {
        "name": "なかよし餃子　クレオパトラ",
        "category": "飲料・食品",
        "region": "道央",
        "rank": "ブロンズ",
        "work": "飲食店",
        "postalCode": "060-0001",
        "address": "札幌市中央区北1条西3-3-24札幌中央ビルB1F",
        "phoneNumber": "011-211-4640",
        "url": "http://www.cleopatragyoza.com",
        "benefit": "エリザベスの姉妹店クレオパトラも今年からコンサドーレをサポートします！",
        "comment": "会員カード持参でドリンク1杯無料",
        "continuationYears": 1
      }
    },
    {
      "type": "Feature",
      "geometry": {
        "type": "Point",
        "coordinates": [
          141.2105752,
          43.0439332
        ]
      },
      "properties": {
        "name": "株式会社hoktou",
        "category": "建設関係",
        "region": "道央",
        "rank": "ブロンズ",
        "work": "鳶工事土木工事",
        "postalCode": "063-0029",
        "address": "札幌市西区平和423番地14",
        "phoneNumber": "011-688-5244",
        "url": "",
        "benefit": "",
        "comment": "",
        "continuationYears": 1
      }
    },
    {
      "type": "Feature",
      "geometry": {
        "type": "Point",
        "coordinates": [
          141.3686583,
          43.0292438
        ]
      },
      "properties": {
        "name": "セミパーソナルジムEXIM+",
        "category": "その他",
        "region": "道央",
        "rank": "ブロンズ",
        "work": "フィットネスジム",
        "postalCode": "062-0933",
        "address": "札幌市豊平区平岸3条11丁目1-20アーバンプラザSAWADA1階",
        "phoneNumber": "011-867-0393",
        "url": "https://exim-plus.com",
        "benefit": "体験トレーニング4,000円（税別）→1,000円（税別）",
        "comment": "「エクシムプラス」はサポーターの皆さまの健康をサポートします。赤黒のスクワットラックで気分も上々‼",
        "continuationYears": 1
      }
    },
    {
      "type": "Feature",
      "geometry": {
        "type": "Point",
        "coordinates": [
          141.2823272,
          43.1276924
        ]
      },
      "properties": {
        "name": "株式会社ユニコロン",
        "category": "卸売・小売",
        "region": "道央",
        "rank": "ブロンズ",
        "work": "繊維・衣服等卸売業",
        "postalCode": "001-0934",
        "address": "札幌市北区新川西4条4丁目2番5号",
        "phoneNumber": "011-792-5100",
        "url": "http://www.unicolum.co.jp",
        "benefit": "",
        "comment": "心の豊かさを追求し、ユニフォームで「理念をデザイン」する。",
        "continuationYears": 1
      }
    },
    {
      "type": "Feature",
      "geometry": {
        "type": "Point",
        "coordinates": [
          141.3485516,
          43.0693519
        ]
      },
      "properties": {
        "name": "不動産のｅａ",
        "category": "不動産業",
        "region": "道央",
        "rank": "ブロンズ",
        "work": "不動産賃貸業",
        "postalCode": "060-0807",
        "address": "札幌市北区北7条西4丁目4-1第5北海道通信ビル４F",
        "phoneNumber": "011-374-6390",
        "url": "http://www.fudousan-ea.com",
        "benefit": "仲介手数料無料に加え、特別特典を進呈。",
        "comment": "札幌の不動産賃貸は「不動産のｅａ　」まで‼",
        "continuationYears": 1
      }
    },
    {
      "type": "Feature",
      "geometry": {
        "type": "Point",
        "coordinates": [
          141.3431307,
          43.1016281
        ]
      },
      "properties": {
        "name": "株式会社北海道利空",
        "category": "建設関係",
        "region": "道央",
        "rank": "シルバー",
        "work": "建築業",
        "postalCode": "001-0034",
        "address": "札幌市北区北34条西3丁目2番26号",
        "phoneNumber": "011-600-2213",
        "url": "",
        "benefit": "",
        "comment": "",
        "continuationYears": 1
      }
    },
    {
      "type": "Feature",
      "geometry": null,
      "properties": {
        "name": "村上　アシシ",
        "category": "その他",
        "region": "道外",
        "rank": "シルバー",
        "work": "経営コンサルティング",
        "postalCode": "",
        "address": "",
        "phoneNumber": "",
        "url": "http://atsushi2010.com",
        "benefit": "",
        "comment": "Yahoo!個人でコンサドーレのコラムを書いているのでお読みください。",
        "continuationYears": 1
      }
    },
    {
      "type": "Feature",
      "geometry": {
        "type": "Point",
        "coordinates": [
          142.4093746,
          44.02654390000001
        ]
      },
      "properties": {
        "name": "株式会社　浜田組",
        "category": "建設関係",
        "region": "道北",
        "rank": "ブロンズ",
        "work": "建設業",
        "postalCode": "098-0132",
        "address": "上川郡和寒町字西町199番地",
        "phoneNumber": "0165-32-2451",
        "url": "http://www.hamada-gumi.jp",
        "benefit": "",
        "comment": "高気密・高断熱住宅の設計・施工",
        "continuationYears": 1
      }
    },
    {
      "type": "Feature",
      "geometry": {
        "type": "Point",
        "coordinates": [
          141.3774664,
          43.0480268
        ]
      },
      "properties": {
        "name": "しまふく整骨院",
        "category": "病院・医療",
        "region": "道央",
        "rank": "ブロンズ",
        "work": "整骨院",
        "postalCode": "062-0903",
        "address": "札幌市豊平区豊平3条9丁目3-18HONU豊平A　１F",
        "phoneNumber": "011-595-7728",
        "url": "http://shima-fuku.com",
        "benefit": "クラブコンサドーレ会員は初回500円オフ",
        "comment": "赤と黒仕様の当院で身体もコンサ愛もグレードＵＰ‼",
        "continuationYears": 1
      }
    },
    {
      "type": "Feature",
      "geometry": {
        "type": "Point",
        "coordinates": [
          141.2865362,
          43.1072344
        ]
      },
      "properties": {
        "name": "和商株式会社",
        "category": "卸売・小売",
        "region": "道央",
        "rank": "ゴールド",
        "work": "機械器具卸売業",
        "postalCode": "063-0835",
        "address": "札幌市西区発寒15条13丁目1番45号",
        "phoneNumber": "011-666-8900",
        "url": "http://www.washo.net",
        "benefit": "",
        "comment": "サービスに徹し、お客様の要求を満たす技術商社",
        "continuationYears": 1
      }
    },
    {
      "type": "Feature",
      "geometry": {
        "type": "Point",
        "coordinates": [
          139.764536,
          35.6678831
        ]
      },
      "properties": {
        "name": "株式会社ボランチ",
        "category": "その他",
        "region": "道外",
        "rank": "ブロンズ",
        "work": "広告業",
        "postalCode": "104-0061",
        "address": "東京都中央区銀座7-13-6-2F",
        "phoneNumber": "080-4152-7489",
        "url": "https://vlnt.jp",
        "benefit": "",
        "comment": "北海道にクリエイティブを！アイデアとデザインとテクノロジーであらゆる課題を解決します。",
        "continuationYears": 1
      }
    },
    {
      "type": "Feature",
      "geometry": {
        "type": "Point",
        "coordinates": [
          139.7841995,
          35.7616776
        ]
      },
      "properties": {
        "name": "中小企業診断士　中原裕之",
        "category": "その他",
        "region": "道外",
        "rank": "ブロンズ",
        "work": "コンサルティング",
        "postalCode": "123-0853",
        "address": "東京都足立区本木1-23-18",
        "phoneNumber": "03-3889-1299",
        "url": "",
        "benefit": "",
        "comment": "一生コンサドーレします。",
        "continuationYears": 1
      }
    },
    {
      "type": "Feature",
      "geometry": {
        "type": "Point",
        "coordinates": [
          141.3216802,
          43.0552675
        ]
      },
      "properties": {
        "name": "Show room",
        "category": "卸売・小売",
        "region": "道央",
        "rank": "ブロンズ",
        "work": "アパレル",
        "postalCode": "064-0801",
        "address": "札幌市中央区南1条西24丁目1-8エスターアベニュー１Ｆ",
        "phoneNumber": "011-688-8464",
        "url": "",
        "benefit": "",
        "comment": "シュプリームやラグジュアリーブランド取扱店　新品未使用での在庫数は道内NO１セレクトショップ",
        "continuationYears": 1
      }
    },
    {
      "type": "Feature",
      "geometry": {
        "type": "Point",
        "coordinates": [
          141.3900834,
          43.0468275
        ]
      },
      "properties": {
        "name": "有限会社澪工房",
        "category": "その他",
        "region": "道央",
        "rank": "ブロンズ",
        "work": "家具デザイン設計販売",
        "postalCode": "003-0002",
        "address": "札幌市白石区東札幌2条4丁目8-18",
        "phoneNumber": "011-816-6797",
        "url": "https://www.mio-kobo.com",
        "benefit": "ご購入者にはコースターをプレゼント",
        "comment": "上質な木をはじめ、素材を生かしたシンプルなデザインの家具を製作しています。",
        "continuationYears": 1
      }
    },
    {
      "type": "Feature",
      "geometry": {
        "type": "Point",
        "coordinates": [
          141.3244758,
          43.1168409
        ]
      },
      "properties": {
        "name": "ミートショップいとう",
        "category": "卸売・小売",
        "region": "道央",
        "rank": "シルバー",
        "work": "食肉卸・小売　食品販売",
        "postalCode": "001-0908",
        "address": "札幌市北区新琴似8条8丁目1-2",
        "phoneNumber": "011-763-5800",
        "url": "https://www.facebook.com/meatshopitoh/",
        "benefit": "3000円以上のお買い上げで次回使える商品券300円相当をプレゼント",
        "comment": "激辛なんDEATH超悶絶激辛味付辛味噌ホルモン　赤黒コンボセット販売中",
        "continuationYears": 1
      }
    },
    {
      "type": "Feature",
      "geometry": {
        "type": "Point",
        "coordinates": [
          141.35827,
          43.0520933
        ]
      },
      "properties": {
        "name": "reward　株式会社",
        "category": "その他",
        "region": "道央",
        "rank": "シルバー",
        "work": "障害福祉サービス",
        "postalCode": "064-0807",
        "address": "札幌市中央区南7条西1丁目2-3FC南7条３F",
        "phoneNumber": "011-530-5571",
        "url": "http://re-ward.co.jp",
        "benefit": "",
        "comment": "",
        "continuationYears": 1
      }
    },
    {
      "type": "Feature",
      "geometry": {
        "type": "Point",
        "coordinates": [
          141.3460745,
          43.0789076
        ]
      },
      "properties": {
        "name": "ホクダイマエ食堂CIERVO（シエルヴォ）",
        "category": "飲料・食品",
        "region": "道央",
        "rank": "ブロンズ",
        "work": "飲食店",
        "postalCode": "001-0015",
        "address": "札幌市北区北15条西4丁目2-18",
        "phoneNumber": "011-788-9656",
        "url": "https://www.matt-company.com",
        "benefit": "",
        "comment": "カレーが自慢の3階建て一軒家レストラン",
        "continuationYears": 1
      }
    },
    {
      "type": "Feature",
      "geometry": {
        "type": "Point",
        "coordinates": [
          141.3537459,
          43.05956800000001
        ]
      },
      "properties": {
        "name": "Premium　foods　ｉｎｃ",
        "category": "卸売・小売",
        "region": "道央",
        "rank": "ブロンズ",
        "work": "海外健康食品",
        "postalCode": "060-0061",
        "address": "札幌市中央区南1条西3丁目8-11札石ビル６Ｆ",
        "phoneNumber": "011-219-7351",
        "url": "https://premiumfoodsinc.com/",
        "benefit": "",
        "comment": "",
        "continuationYears": 1
      }
    },
    {
      "type": "Feature",
      "geometry": {
        "type": "Point",
        "coordinates": [
          141.3016947,
          43.06632740000001
        ]
      },
      "properties": {
        "name": "土地家屋調査士　本間事務所",
        "category": "その他",
        "region": "道央",
        "rank": "ブロンズ",
        "work": "土地家屋調査士業",
        "postalCode": "063-0001",
        "address": "札幌市西区山の手1条5丁目1番20号",
        "phoneNumber": "090-1389-7918",
        "url": "",
        "benefit": "",
        "comment": "",
        "continuationYears": 1
      }
    }
  ]
}